{
  "model_info": {
    "name": "Sri Lanka Travel Recommendation Model",
    "version": "2.0.0",
    "created_date": "2025-07-30T15:37:18.976296",
    "framework": "tensorflow_lite",
    "model_type": "binary_classification",
    "accuracy": 0.9999520778656006,
    "precision": 0.9999824166297913,
    "recall": 0.9999261498451233,
    "auc": 0.9999998807907104,
    "loss": 0.00019034284923691303,
    "input_features": [
      "user_lat",
      "user_lng",
      "user_budget",
      "user_travel_type_encoded",
      "user_duration",
      "user_province_encoded",
      "place_lat",
      "place_lng",
      "place_budget",
      "place_type_encoded",
      "place_duration",
      "place_province_encoded",
      "place_rating",
      "distance",
      "budget_match",
      "type_match",
      "duration_match",
      "province_match",
      "season_match",
      "season_encoded",
      "budget_ratio",
      "same_province"
    ],
    "total_parameters": 51457,
    "model_size_kb": 101.78515625
  },
  "dataset_info": {
    "total_places": 538,
    "total_samples": 2711520,
    "provinces": [
      "North Western",
      "Eastern",
      "North Central",
      "Sabaragamuwa",
      "Southern",
      "Uva",
      "Central",
      "Western",
      "Northern"
    ],
    "travel_types": [
      "adventure",
      "educational",
      "nature",
      "scenic",
      "recreational",
      "historical",
      "religious",
      "cultural",
      "beach",
      "modern",
      "wildlife"
    ],
    "budget_range": {
      "min": 200,
      "max": 8000
    }
  },
  "places_database": [
    {
      "name": "Colombo Fort",
      "lat": 6.9344,
      "lng": 79.8428,
      "province": "Western",
      "city": "Colombo",
      "type": "historical",
      "budget": 2000,
      "season": "all",
      "duration": 4,
      "rating": 4.2,
      "activities": [
        "walking",
        "photography",
        "shopping"
      ]
    },
    {
      "name": "Galle Face Green",
      "lat": 6.9271,
      "lng": 79.8612,
      "province": "Western",
      "city": "Colombo",
      "type": "recreational",
      "budget": 500,
      "season": "all",
      "duration": 3,
      "rating": 4.0,
      "activities": [
        "walking",
        "food",
        "sunset"
      ]
    },
    {
      "name": "National Museum Colombo",
      "lat": 6.9147,
      "lng": 79.8613,
      "province": "Western",
      "city": "Colombo",
      "type": "cultural",
      "budget": 1000,
      "season": "all",
      "duration": 3,
      "rating": 4.1,
      "activities": [
        "learning",
        "photography"
      ]
    },
    {
      "name": "Kelaniya Temple",
      "lat": 6.9553,
      "lng": 79.9216,
      "province": "Western",
      "city": "Kelaniya",
      "type": "religious",
      "budget": 800,
      "season": "all",
      "duration": 2,
      "rating": 4.5,
      "activities": [
        "worship",
        "meditation"
      ]
    },
    {
      "name": "Mount Lavinia Beach",
      "lat": 6.8344,
      "lng": 79.8633,
      "province": "Western",
      "city": "Mount Lavinia",
      "type": "beach",
      "budget": 1500,
      "season": "dry",
      "duration": 5,
      "rating": 4.3,
      "activities": [
        "swimming",
        "surfing",
        "dining"
      ]
    },
    {
      "name": "Independence Square",
      "lat": 6.9034,
      "lng": 79.8697,
      "province": "Western",
      "city": "Colombo",
      "type": "historical",
      "budget": 300,
      "season": "all",
      "duration": 2,
      "rating": 4.0,
      "activities": [
        "walking",
        "photography"
      ]
    },
    {
      "name": "Gangaramaya Temple",
      "lat": 6.9162,
      "lng": 79.857,
      "province": "Western",
      "city": "Colombo",
      "type": "religious",
      "budget": 1200,
      "season": "all",
      "duration": 3,
      "rating": 4.4,
      "activities": [
        "worship",
        "meditation",
        "cultural"
      ]
    },
    {
      "name": "Pettah Market",
      "lat": 6.9392,
      "lng": 79.845,
      "province": "Western",
      "city": "Colombo",
      "type": "cultural",
      "budget": 1500,
      "season": "all",
      "duration": 4,
      "rating": 4.0,
      "activities": [
        "shopping",
        "street_food",
        "cultural"
      ]
    },
    {
      "name": "Viharamahadevi Park",
      "lat": 6.9147,
      "lng": 79.8613,
      "province": "Western",
      "city": "Colombo",
      "type": "recreational",
      "budget": 200,
      "season": "all",
      "duration": 2,
      "rating": 3.9,
      "activities": [
        "walking",
        "relaxation",
        "family"
      ]
    },
    {
      "name": "Red Mosque",
      "lat": 6.9392,
      "lng": 79.845,
      "province": "Western",
      "city": "Colombo",
      "type": "religious",
      "budget": 300,
      "season": "all",
      "duration": 1,
      "rating": 4.2,
      "activities": [
        "worship",
        "architecture",
        "photography"
      ]
    },
    {
      "name": "Colombo Lotus Tower",
      "lat": 6.9271,
      "lng": 79.8612,
      "province": "Western",
      "city": "Colombo",
      "type": "modern",
      "budget": 2500,
      "season": "all",
      "duration": 3,
      "rating": 4.1,
      "activities": [
        "sightseeing",
        "photography",
        "dining"
      ]
    },
    {
      "name": "Dehiwala Zoo",
      "lat": 6.8344,
      "lng": 79.8633,
      "province": "Western",
      "city": "Dehiwala",
      "type": "wildlife",
      "budget": 1800,
      "season": "all",
      "duration": 4,
      "rating": 4.0,
      "activities": [
        "wildlife",
        "family",
        "education"
      ]
    },
    {
      "name": "Old Parliament Building",
      "lat": 6.9344,
      "lng": 79.8428,
      "province": "Western",
      "city": "Colombo",
      "type": "historical",
      "budget": 500,
      "season": "all",
      "duration": 2,
      "rating": 4.0,
      "activities": [
        "photography",
        "architecture",
        "history"
      ]
    },
    {
      "name": "Colombo Dutch Museum",
      "lat": 6.9392,
      "lng": 79.845,
      "province": "Western",
      "city": "Colombo",
      "type": "cultural",
      "budget": 800,
      "season": "all",
      "duration": 2,
      "rating": 4.1,
      "activities": [
        "learning",
        "history",
        "photography"
      ]
    },
    {
      "name": "Seema Malaka Temple",
      "lat": 6.9162,
      "lng": 79.857,
      "province": "Western",
      "city": "Colombo",
      "type": "religious",
      "budget": 600,
      "season": "all",
      "duration": 2,
      "rating": 4.3,
      "activities": [
        "meditation",
        "photography",
        "architecture"
      ]
    },
    {
      "name": "Beira Lake",
      "lat": 6.9162,
      "lng": 79.857,
      "province": "Western",
      "city": "Colombo",
      "type": "recreational",
      "budget": 400,
      "season": "all",
      "duration": 2,
      "rating": 4.0,
      "activities": [
        "boating",
        "walking",
        "relaxation"
      ]
    },
    {
      "name": "Colombo Port City",
      "lat": 6.9271,
      "lng": 79.8612,
      "province": "Western",
      "city": "Colombo",
      "type": "modern",
      "budget": 1000,
      "season": "all",
      "duration": 3,
      "rating": 4.2,
      "activities": [
        "sightseeing",
        "photography",
        "modern_architecture"
      ]
    },
    {
      "name": "St. Lucia's Cathedral",
      "lat": 6.9392,
      "lng": 79.845,
      "province": "Western",
      "city": "Colombo",
      "type": "religious",
      "budget": 200,
      "season": "all",
      "duration": 1,
      "rating": 4.1,
      "activities": [
        "worship",
        "architecture",
        "photography"
      ]
    },
    {
      "name": "Wolfendhal Church",
      "lat": 6.9392,
      "lng": 79.845,
      "province": "Western",
      "city": "Colombo",
      "type": "historical",
      "budget": 300,
      "season": "all",
      "duration": 1,
      "rating": 4.0,
      "activities": [
        "history",
        "architecture",
        "photography"
      ]
    },
    {
      "name": "Colombo Racecourse",
      "lat": 6.9034,
      "lng": 79.8697,
      "province": "Western",
      "city": "Colombo",
      "type": "recreational",
      "budget": 2000,
      "season": "all",
      "duration": 4,
      "rating": 3.8,
      "activities": [
        "sports",
        "entertainment",
        "socializing"
      ]
    },
    {
      "name": "Good Market",
      "lat": 6.9034,
      "lng": 79.8697,
      "province": "Western",
      "city": "Colombo",
      "type": "cultural",
      "budget": 1200,
      "season": "all",
      "duration": 3,
      "rating": 4.2,
      "activities": [
        "shopping",
        "organic_food",
        "crafts"
      ]
    },
    {
      "name": "Arcade Independence Square",
      "lat": 6.9034,
      "lng": 79.8697,
      "province": "Western",
      "city": "Colombo",
      "type": "modern",
      "budget": 1500,
      "season": "all",
      "duration": 3,
      "rating": 4.0,
      "activities": [
        "shopping",
        "dining",
        "entertainment"
      ]
    },
    {
      "name": "Mount Lavinia Hotel",
      "lat": 6.8344,
      "lng": 79.8633,
      "province": "Western",
      "city": "Mount Lavinia",
      "type": "historical",
      "budget": 2500,
      "season": "all",
      "duration": 3,
      "rating": 4.4,
      "activities": [
        "dining",
        "history",
        "luxury"
      ]
    },
    {
      "name": "Wellawatte Beach",
      "lat": 6.8642,
      "lng": 79.8553,
      "province": "Western",
      "city": "Wellawatte",
      "type": "beach",
      "budget": 800,
      "season": "dry",
      "duration": 4,
      "rating": 3.9,
      "activities": [
        "swimming",
        "walking",
        "street_food"
      ]
    },
    {
      "name": "Bambalapitiya Beach",
      "lat": 6.8888,
      "lng": 79.8553,
      "province": "Western",
      "city": "Bambalapitiya",
      "type": "beach",
      "budget": 600,
      "season": "dry",
      "duration": 3,
      "rating": 3.8,
      "activities": [
        "walking",
        "sunset",
        "food"
      ]
    },
    {
      "name": "Ratmalana Airport Museum",
      "lat": 6.8221,
      "lng": 79.8864,
      "province": "Western",
      "city": "Ratmalana",
      "type": "cultural",
      "budget": 1200,
      "season": "all",
      "duration": 3,
      "rating": 4.0,
      "activities": [
        "aviation",
        "history",
        "education"
      ]
    },
    {
      "name": "Negombo Beach",
      "lat": 7.2084,
      "lng": 79.838,
      "province": "Western",
      "city": "Negombo",
      "type": "beach",
      "budget": 1200,
      "season": "dry",
      "duration": 5,
      "rating": 4.2,
      "activities": [
        "swimming",
        "fishing",
        "water_sports"
      ]
    },
    {
      "name": "Negombo Fish Market",
      "lat": 7.2084,
      "lng": 79.838,
      "province": "Western",
      "city": "Negombo",
      "type": "cultural",
      "budget": 800,
      "season": "all",
      "duration": 2,
      "rating": 4.1,
      "activities": [
        "cultural",
        "photography",
        "local_life"
      ]
    },
    {
      "name": "St. Mary's Church Negombo",
      "lat": 7.2084,
      "lng": 79.838,
      "province": "Western",
      "city": "Negombo",
      "type": "religious",
      "budget": 400,
      "season": "all",
      "duration": 1,
      "rating": 4.3,
      "activities": [
        "worship",
        "architecture",
        "history"
      ]
    },
    {
      "name": "Negombo Lagoon",
      "lat": 7.2084,
      "lng": 79.838,
      "province": "Western",
      "city": "Negombo",
      "type": "nature",
      "budget": 1500,
      "season": "all",
      "duration": 4,
      "rating": 4.2,
      "activities": [
        "boat_rides",
        "bird_watching",
        "fishing"
      ]
    },
    {
      "name": "Muthurajawela Marsh",
      "lat": 7.0833,
      "lng": 79.8833,
      "province": "Western",
      "city": "Negombo",
      "type": "nature",
      "budget": 1800,
      "season": "all",
      "duration": 4,
      "rating": 4.4,
      "activities": [
        "eco_tourism",
        "bird_watching",
        "boat_rides"
      ]
    },
    {
      "name": "Angurukaramulla Temple",
      "lat": 7.2084,
      "lng": 79.838,
      "province": "Western",
      "city": "Negombo",
      "type": "religious",
      "budget": 600,
      "season": "all",
      "duration": 2,
      "rating": 4.2,
      "activities": [
        "worship",
        "meditation",
        "art"
      ]
    },
    {
      "name": "Henarathgoda Botanical Garden",
      "lat": 7.0167,
      "lng": 79.9167,
      "province": "Western",
      "city": "Gampaha",
      "type": "nature",
      "budget": 1000,
      "season": "all",
      "duration": 3,
      "rating": 4.1,
      "activities": [
        "botany",
        "walking",
        "photography"
      ]
    },
    {
      "name": "Attanagalla Raja Maha Vihara",
      "lat": 7.1167,
      "lng": 80.15,
      "province": "Western",
      "city": "Attanagalla",
      "type": "religious",
      "budget": 500,
      "season": "all",
      "duration": 2,
      "rating": 4.3,
      "activities": [
        "worship",
        "meditation",
        "history"
      ]
    },
    {
      "name": "Ragama Railway Museum",
      "lat": 7.0167,
      "lng": 79.9167,
      "province": "Western",
      "city": "Ragama",
      "type": "cultural",
      "budget": 800,
      "season": "all",
      "duration": 2,
      "rating": 4.0,
      "activities": [
        "history",
        "transportation",
        "education"
      ]
    },
    {
      "name": "Biyagama EPZ",
      "lat": 6.95,
      "lng": 79.9833,
      "province": "Western",
      "city": "Biyagama",
      "type": "modern",
      "budget": 1200,
      "season": "all",
      "duration": 3,
      "rating": 3.8,
      "activities": [
        "industrial_tour",
        "business",
        "modern_development"
      ]
    },
    {
      "name": "Kalutara Beach",
      "lat": 6.5854,
      "lng": 79.9607,
      "province": "Western",
      "city": "Kalutara",
      "type": "beach",
      "budget": 1300,
      "season": "dry",
      "duration": 4,
      "rating": 4.1,
      "activities": [
        "swimming",
        "surfing",
        "relaxation"
      ]
    },
    {
      "name": "Kalutara Bodhiya",
      "lat": 6.5854,
      "lng": 79.9607,
      "province": "Western",
      "city": "Kalutara",
      "type": "religious",
      "budget": 400,
      "season": "all",
      "duration": 2,
      "rating": 4.4,
      "activities": [
        "worship",
        "meditation",
        "history"
      ]
    },
    {
      "name": "Richmond Castle",
      "lat": 6.5854,
      "lng": 79.9607,
      "province": "Western",
      "city": "Kalutara",
      "type": "historical",
      "budget": 1500,
      "season": "all",
      "duration": 3,
      "rating": 4.2,
      "activities": [
        "history",
        "architecture",
        "photography"
      ]
    },
    {
      "name": "Fa Hien Cave",
      "lat": 6.5854,
      "lng": 79.9607,
      "province": "Western",
      "city": "Kalutara",
      "type": "historical",
      "budget": 800,
      "season": "all",
      "duration": 2,
      "rating": 4.0,
      "activities": [
        "archaeology",
        "history",
        "exploration"
      ]
    },
    {
      "name": "Kalu Ganga River",
      "lat": 6.5854,
      "lng": 79.9607,
      "province": "Western",
      "city": "Kalutara",
      "type": "nature",
      "budget": 1600,
      "season": "all",
      "duration": 4,
      "rating": 4.1,
      "activities": [
        "river_cruise",
        "fishing",
        "water_sports"
      ]
    },
    {
      "name": "Waskaduwa Beach",
      "lat": 6.6333,
      "lng": 79.95,
      "province": "Western",
      "city": "Waskaduwa",
      "type": "beach",
      "budget": 1100,
      "season": "dry",
      "duration": 4,
      "rating": 4.0,
      "activities": [
        "swimming",
        "beach_volleyball",
        "dining"
      ]
    },
    {
      "name": "Barberyn Island",
      "lat": 6.4792,
      "lng": 79.9831,
      "province": "Western",
      "city": "Beruwala",
      "type": "nature",
      "budget": 2000,
      "season": "dry",
      "duration": 6,
      "rating": 4.2,
      "activities": [
        "island_hopping",
        "snorkeling",
        "lighthouse"
      ]
    },
    {
      "name": "Kechimalai Mosque",
      "lat": 6.4792,
      "lng": 79.9831,
      "province": "Western",
      "city": "Beruwala",
      "type": "religious",
      "budget": 300,
      "season": "all",
      "duration": 1,
      "rating": 4.1,
      "activities": [
        "worship",
        "architecture",
        "history"
      ]
    },
    {
      "name": "Brief Garden",
      "lat": 6.4167,
      "lng": 79.9833,
      "province": "Western",
      "city": "Bentota",
      "type": "nature",
      "budget": 1200,
      "season": "all",
      "duration": 3,
      "rating": 4.3,
      "activities": [
        "garden_tour",
        "art",
        "photography"
      ]
    },
    {
      "name": "Galapata Temple",
      "lat": 6.4167,
      "lng": 79.9833,
      "province": "Western",
      "city": "Bentota",
      "type": "religious",
      "budget": 500,
      "season": "all",
      "duration": 2,
      "rating": 4.1,
      "activities": [
        "worship",
        "meditation",
        "ocean_views"
      ]
    },
    {
      "name": "Bellanwila Rajamaha Viharaya",
      "lat": 6.8833,
      "lng": 79.8833,
      "province": "Western",
      "city": "Dehiwala",
      "type": "religious",
      "budget": 400,
      "season": "all",
      "duration": 2,
      "rating": 4.3,
      "activities": [
        "worship",
        "meditation",
        "festivals"
      ]
    },
    {
      "name": "Diyatha Uyana",
      "lat": 6.8833,
      "lng": 79.8833,
      "province": "Western",
      "city": "Battaramulla",
      "type": "recreational",
      "budget": 800,
      "season": "all",
      "duration": 3,
      "rating": 4.1,
      "activities": [
        "walking",
        "boating",
        "food_court"
      ]
    },
    {
      "name": "Parliament Complex",
      "lat": 6.8833,
      "lng": 79.8833,
      "province": "Western",
      "city": "Battaramulla",
      "type": "modern",
      "budget": 1000,
      "season": "all",
      "duration": 2,
      "rating": 4.0,
      "activities": [
        "architecture",
        "politics",
        "photography"
      ]
    },
    {
      "name": "Nawala Rajagiriya",
      "lat": 6.9,
      "lng": 79.8833,
      "province": "Western",
      "city": "Rajagiriya",
      "type": "modern",
      "budget": 1200,
      "season": "all",
      "duration": 3,
      "rating": 3.9,
      "activities": [
        "shopping",
        "dining",
        "entertainment"
      ]
    },
    {
      "name": "Nugegoda Market",
      "lat": 6.8667,
      "lng": 79.8833,
      "province": "Western",
      "city": "Nugegoda",
      "type": "cultural",
      "budget": 600,
      "season": "all",
      "duration": 2,
      "rating": 3.8,
      "activities": [
        "shopping",
        "local_food",
        "cultural"
      ]
    },
    {
      "name": "Bolgoda Lake",
      "lat": 6.8,
      "lng": 79.9167,
      "province": "Western",
      "city": "Panadura",
      "type": "nature",
      "budget": 1400,
      "season": "all",
      "duration": 4,
      "rating": 4.2,
      "activities": [
        "water_sports",
        "fishing",
        "boat_rides"
      ]
    },
    {
      "name": "Panadura Beach",
      "lat": 6.7131,
      "lng": 79.907,
      "province": "Western",
      "city": "Panadura",
      "type": "beach",
      "budget": 900,
      "season": "dry",
      "duration": 4,
      "rating": 3.9,
      "activities": [
        "swimming",
        "walking",
        "local_food"
      ]
    },
    {
      "name": "Moratuwa Beach",
      "lat": 6.7731,
      "lng": 79.8819,
      "province": "Western",
      "city": "Moratuwa",
      "type": "beach",
      "budget": 700,
      "season": "dry",
      "duration": 3,
      "rating": 3.7,
      "activities": [
        "swimming",
        "fishing",
        "boat_building"
      ]
    },
    {
      "name": "Talangama Wetlands",
      "lat": 6.9,
      "lng": 79.95,
      "province": "Western",
      "city": "Battaramulla",
      "type": "nature",
      "budget": 1000,
      "season": "all",
      "duration": 3,
      "rating": 4.2,
      "activities": [
        "bird_watching",
        "nature_walks",
        "eco_tourism"
      ]
    },
    {
      "name": "Thalawathugoda Park",
      "lat": 6.9,
      "lng": 79.95,
      "province": "Western",
      "city": "Thalawathugoda",
      "type": "recreational",
      "budget": 300,
      "season": "all",
      "duration": 2,
      "rating": 3.9,
      "activities": [
        "walking",
        "jogging",
        "family_time"
      ]
    },
    {
      "name": "Lionel Wendt Theatre",
      "lat": 6.9147,
      "lng": 79.8613,
      "province": "Western",
      "city": "Colombo",
      "type": "cultural",
      "budget": 1500,
      "season": "all",
      "duration": 3,
      "rating": 4.2,
      "activities": [
        "performing_arts",
        "theatre",
        "culture"
      ]
    },
    {
      "name": "Colombo Art Gallery",
      "lat": 6.9147,
      "lng": 79.8613,
      "province": "Western",
      "city": "Colombo",
      "type": "cultural",
      "budget": 800,
      "season": "all",
      "duration": 2,
      "rating": 4.0,
      "activities": [
        "art",
        "exhibitions",
        "culture"
      ]
    },
    {
      "name": "Nelum Pokuna Theatre",
      "lat": 6.9147,
      "lng": 79.8613,
      "province": "Western",
      "city": "Colombo",
      "type": "cultural",
      "budget": 1800,
      "season": "all",
      "duration": 3,
      "rating": 4.3,
      "activities": [
        "performing_arts",
        "music",
        "dance"
      ]
    },
    {
      "name": "One Galle Face Mall",
      "lat": 6.9271,
      "lng": 79.8612,
      "province": "Western",
      "city": "Colombo",
      "type": "modern",
      "budget": 2000,
      "season": "all",
      "duration": 4,
      "rating": 4.1,
      "activities": [
        "shopping",
        "dining",
        "entertainment"
      ]
    },
    {
      "name": "Crescat Boulevard",
      "lat": 6.9147,
      "lng": 79.8613,
      "province": "Western",
      "city": "Colombo",
      "type": "modern",
      "budget": 1800,
      "season": "all",
      "duration": 3,
      "rating": 4.0,
      "activities": [
        "shopping",
        "dining",
        "cinema"
      ]
    },
    {
      "name": "Majestic City",
      "lat": 6.8888,
      "lng": 79.8553,
      "province": "Western",
      "city": "Bambalapitiya",
      "type": "modern",
      "budget": 1500,
      "season": "all",
      "duration": 3,
      "rating": 3.8,
      "activities": [
        "shopping",
        "dining",
        "entertainment"
      ]
    },
    {
      "name": "Liberty Plaza",
      "lat": 6.9147,
      "lng": 79.8613,
      "province": "Western",
      "city": "Colombo",
      "type": "modern",
      "budget": 1200,
      "season": "all",
      "duration": 2,
      "rating": 3.7,
      "activities": [
        "shopping",
        "electronics",
        "food_court"
      ]
    },
    {
      "name": "Ape Gama",
      "lat": 6.8833,
      "lng": 79.8833,
      "province": "Western",
      "city": "Battaramulla",
      "type": "cultural",
      "budget": 700,
      "season": "all",
      "duration": 2,
      "rating": 4.1,
      "activities": [
        "heritage",
        "culture",
        "photography"
      ]
    },
    {
      "name": "Water World Kelaniya",
      "lat": 6.95,
      "lng": 79.92,
      "province": "Western",
      "city": "Kelaniya",
      "type": "recreational",
      "budget": 1500,
      "season": "all",
      "duration": 3,
      "rating": 4.2,
      "activities": [
        "aquarium",
        "family",
        "education"
      ]
    },
    {
      "name": "Sri Lanka Air Force Museum",
      "lat": 6.8021,
      "lng": 79.885,
      "province": "Western",
      "city": "Ratmalana",
      "type": "cultural",
      "budget": 1000,
      "season": "all",
      "duration": 3,
      "rating": 4.0,
      "activities": [
        "aviation",
        "history",
        "photography"
      ]
    },
    {
      "name": "Bellanwila Walking Track",
      "lat": 6.8666,
      "lng": 79.8888,
      "province": "Western",
      "city": "Bellanwila",
      "type": "recreational",
      "budget": 200,
      "season": "all",
      "duration": 2,
      "rating": 3.9,
      "activities": [
        "walking",
        "jogging",
        "relaxation"
      ]
    },
    {
      "name": "Kosgoda Turtle Hatchery",
      "lat": 6.3333,
      "lng": 80.02,
      "province": "Western",
      "city": "Kosgoda",
      "type": "nature",
      "budget": 1000,
      "season": "dry",
      "duration": 3,
      "rating": 4.4,
      "activities": [
        "conservation",
        "education",
        "photography"
      ]
    },
    {
      "name": "Kanduboda Meditation Centre",
      "lat": 7.0333,
      "lng": 80.05,
      "province": "Western",
      "city": "Delgoda",
      "type": "religious",
      "budget": 300,
      "season": "all",
      "duration": 2,
      "rating": 4.2,
      "activities": [
        "meditation",
        "spiritual",
        "nature"
      ]
    },
    {
      "name": "Guruge Nature Park",
      "lat": 7.0667,
      "lng": 79.95,
      "province": "Western",
      "city": "Ja-Ela",
      "type": "recreational",
      "budget": 1800,
      "season": "all",
      "duration": 4,
      "rating": 4.0,
      "activities": [
        "family",
        "wildlife",
        "education"
      ]
    },
    {
      "name": "Beddagana Wetland Park",
      "lat": 6.89,
      "lng": 79.9,
      "province": "Western",
      "city": "Kotte",
      "type": "nature",
      "budget": 600,
      "season": "all",
      "duration": 2,
      "rating": 4.1,
      "activities": [
        "bird_watching",
        "walking",
        "nature"
      ]
    },
    {
      "name": "Kelani River",
      "lat": 6.95,
      "lng": 79.92,
      "province": "Western",
      "city": "Colombo",
      "type": "nature",
      "budget": 1000,
      "season": "all",
      "duration": 3,
      "rating": 4.0,
      "activities": [
        "boat_rides",
        "photography",
        "fishing"
      ]
    },
    {
      "name": "Dutch Hospital Shopping Precinct",
      "lat": 6.9344,
      "lng": 79.8428,
      "province": "Western",
      "city": "Colombo",
      "type": "modern",
      "budget": 2000,
      "season": "all",
      "duration": 3,
      "rating": 4.3,
      "activities": [
        "shopping",
        "dining",
        "history"
      ]
    },
    {
      "name": "Wetland Park Diyasaru Uyana",
      "lat": 6.89,
      "lng": 79.9,
      "province": "Western",
      "city": "Battaramulla",
      "type": "nature",
      "budget": 800,
      "season": "all",
      "duration": 3,
      "rating": 4.2,
      "activities": [
        "bird_watching",
        "nature_walks",
        "eco_tourism"
      ]
    },
    {
      "name": "Colombo City Centre",
      "lat": 6.9271,
      "lng": 79.8612,
      "province": "Western",
      "city": "Colombo",
      "type": "modern",
      "budget": 2000,
      "season": "all",
      "duration": 3,
      "rating": 4.1,
      "activities": [
        "shopping",
        "dining",
        "cinema"
      ]
    },
    {
      "name": "Temple of the Tooth",
      "lat": 7.2936,
      "lng": 80.641,
      "province": "Central",
      "city": "Kandy",
      "type": "religious",
      "budget": 1000,
      "season": "all",
      "duration": 3,
      "rating": 4.7,
      "activities": [
        "worship",
        "cultural",
        "photography"
      ]
    },
    {
      "name": "Royal Botanical Gardens",
      "lat": 7.2694,
      "lng": 80.5967,
      "province": "Central",
      "city": "Peradeniya",
      "type": "nature",
      "budget": 1200,
      "season": "all",
      "duration": 4,
      "rating": 4.5,
      "activities": [
        "walking",
        "nature",
        "photography"
      ]
    },
    {
      "name": "Sigiriya Rock Fortress",
      "lat": 7.957,
      "lng": 80.7603,
      "province": "Central",
      "city": "Dambulla",
      "type": "historical",
      "budget": 4500,
      "season": "dry",
      "duration": 6,
      "rating": 4.8,
      "activities": [
        "climbing",
        "photography",
        "archaeology"
      ]
    },
    {
      "name": "Dambulla Cave Temple",
      "lat": 7.8567,
      "lng": 80.649,
      "province": "Central",
      "city": "Dambulla",
      "type": "religious",
      "budget": 2000,
      "season": "all",
      "duration": 3,
      "rating": 4.6,
      "activities": [
        "worship",
        "art",
        "photography"
      ]
    },
    {
      "name": "Nuwara Eliya Tea Plantations",
      "lat": 6.9497,
      "lng": 80.7891,
      "province": "Central",
      "city": "Nuwara Eliya",
      "type": "scenic",
      "budget": 2500,
      "season": "all",
      "duration": 5,
      "rating": 4.4,
      "activities": [
        "tea_tasting",
        "photography",
        "walking"
      ]
    },
    {
      "name": "Horton Plains National Park",
      "lat": 6.8077,
      "lng": 80.7963,
      "province": "Central",
      "city": "Nuwara Eliya",
      "type": "nature",
      "budget": 4000,
      "season": "dry",
      "duration": 7,
      "rating": 4.7,
      "activities": [
        "hiking",
        "wildlife",
        "photography"
      ]
    },
    {
      "name": "Kandy Lake",
      "lat": 7.2906,
      "lng": 80.6337,
      "province": "Central",
      "city": "Kandy",
      "type": "scenic",
      "budget": 500,
      "season": "all",
      "duration": 2,
      "rating": 4.2,
      "activities": [
        "walking",
        "boating",
        "relaxation"
      ]
    },
    {
      "name": "Pinnawala Elephant Orphanage",
      "lat": 7.2981,
      "lng": 80.385,
      "province": "Central",
      "city": "Pinnawala",
      "type": "wildlife",
      "budget": 3000,
      "season": "all",
      "duration": 4,
      "rating": 4.3,
      "activities": [
        "wildlife",
        "feeding",
        "photography"
      ]
    },
    {
      "name": "Pidurangala Rock",
      "lat": 7.957,
      "lng": 80.7603,
      "province": "Central",
      "city": "Dambulla",
      "type": "adventure",
      "budget": 2500,
      "season": "dry",
      "duration": 4,
      "rating": 4.6,
      "activities": [
        "climbing",
        "sunrise",
        "photography"
      ]
    },
    {
      "name": "Matale Spice Gardens",
      "lat": 7.4675,
      "lng": 80.6234,
      "province": "Central",
      "city": "Matale",
      "type": "cultural",
      "budget": 1500,
      "season": "all",
      "duration": 3,
      "rating": 4.2,
      "activities": [
        "learning",
        "shopping",
        "tasting"
      ]
    },
    {
      "name": "Udawattakele Forest Reserve",
      "lat": 7.2936,
      "lng": 80.641,
      "province": "Central",
      "city": "Kandy",
      "type": "nature",
      "budget": 800,
      "season": "all",
      "duration": 3,
      "rating": 4.1,
      "activities": [
        "hiking",
        "bird_watching",
        "meditation"
      ]
    },
    {
      "name": "Bahirawakanda Vihara Buddha Statue",
      "lat": 7.2936,
      "lng": 80.641,
      "province": "Central",
      "city": "Kandy",
      "type": "religious",
      "budget": 600,
      "season": "all",
      "duration": 2,
      "rating": 4.3,
      "activities": [
        "worship",
        "panoramic_view",
        "photography"
      ]
    },
    {
      "name": "Hakgala Botanical Gardens",
      "lat": 6.9497,
      "lng": 80.7891,
      "province": "Central",
      "city": "Nuwara Eliya",
      "type": "nature",
      "budget": 1000,
      "season": "all",
      "duration": 3,
      "rating": 4.2,
      "activities": [
        "walking",
        "photography",
        "nature"
      ]
    },
    {
      "name": "Gregory Lake",
      "lat": 6.9497,
      "lng": 80.7891,
      "province": "Central",
      "city": "Nuwara Eliya",
      "type": "scenic",
      "budget": 1200,
      "season": "all",
      "duration": 3,
      "rating": 4.1,
      "activities": [
        "boating",
        "cycling",
        "picnic"
      ]
    },
    {
      "name": "Seetha Amman Temple",
      "lat": 6.9497,
      "lng": 80.7891,
      "province": "Central",
      "city": "Nuwara Eliya",
      "type": "religious",
      "budget": 400,
      "season": "all",
      "duration": 1,
      "rating": 4.0,
      "activities": [
        "worship",
        "mythology",
        "photography"
      ]
    },
    {
      "name": "Devon Falls",
      "lat": 6.9167,
      "lng": 80.7,
      "province": "Central",
      "city": "Nuwara Eliya",
      "type": "scenic",
      "budget": 1200,
      "season": "all",
      "duration": 3,
      "rating": 4.3,
      "activities": [
        "photography",
        "nature",
        "hiking"
      ]
    },
    {
      "name": "St. Clair's Falls",
      "lat": 6.9,
      "lng": 80.6833,
      "province": "Central",
      "city": "Nuwara Eliya",
      "type": "scenic",
      "budget": 1500,
      "season": "all",
      "duration": 4,
      "rating": 4.4,
      "activities": [
        "photography",
        "hiking",
        "nature"
      ]
    },
    {
      "name": "Mackwoods Labookellie Tea Centre",
      "lat": 6.93,
      "lng": 80.76,
      "province": "Central",
      "city": "Nuwara Eliya",
      "type": "cultural",
      "budget": 2200,
      "season": "all",
      "duration": 4,
      "rating": 4.2,
      "activities": [
        "tea_tasting",
        "factory_tour",
        "shopping"
      ]
    },
    {
      "name": "Peradeniya University",
      "lat": 7.2569,
      "lng": 80.5956,
      "province": "Central",
      "city": "Peradeniya",
      "type": "cultural",
      "budget": 500,
      "season": "all",
      "duration": 2,
      "rating": 4.0,
      "activities": [
        "architecture",
        "walking",
        "photography"
      ]
    },
    {
      "name": "Kadugannawa Pass",
      "lat": 7.2542,
      "lng": 80.5214,
      "province": "Central",
      "city": "Kadugannawa",
      "type": "scenic",
      "budget": 800,
      "season": "all",
      "duration": 2,
      "rating": 4.1,
      "activities": [
        "photography",
        "history",
        "scenic_drive"
      ]
    },
    {
      "name": "Dampegama Vihara",
      "lat": 7.2,
      "lng": 80.45,
      "province": "Central",
      "city": "Kandy",
      "type": "religious",
      "budget": 400,
      "season": "all",
      "duration": 2,
      "rating": 4.0,
      "activities": [
        "worship",
        "meditation",
        "photography"
      ]
    },
    {
      "name": "Asgiriya Vihara",
      "lat": 7.29,
      "lng": 80.63,
      "province": "Central",
      "city": "Kandy",
      "type": "religious",
      "budget": 600,
      "season": "all",
      "duration": 2,
      "rating": 4.2,
      "activities": [
        "worship",
        "architecture",
        "cultural"
      ]
    },
    {
      "name": "Malwatte Vihara",
      "lat": 7.295,
      "lng": 80.635,
      "province": "Central",
      "city": "Kandy",
      "type": "religious",
      "budget": 500,
      "season": "all",
      "duration": 2,
      "rating": 4.1,
      "activities": [
        "worship",
        "meditation",
        "history"
      ]
    },
    {
      "name": "Kandyan Art Association",
      "lat": 7.2936,
      "lng": 80.641,
      "province": "Central",
      "city": "Kandy",
      "type": "cultural",
      "budget": 1000,
      "season": "all",
      "duration": 3,
      "rating": 4.0,
      "activities": [
        "art",
        "shopping",
        "cultural"
      ]
    },
    {
      "name": "Helga's Folly",
      "lat": 7.2936,
      "lng": 80.641,
      "province": "Central",
      "city": "Kandy",
      "type": "cultural",
      "budget": 1500,
      "season": "all",
      "duration": 2,
      "rating": 4.2,
      "activities": [
        "architecture",
        "dining",
        "photography"
      ]
    },
    {
      "name": "Castle Hill",
      "lat": 7.2936,
      "lng": 80.641,
      "province": "Central",
      "city": "Kandy",
      "type": "scenic",
      "budget": 700,
      "season": "all",
      "duration": 3,
      "rating": 4.1,
      "activities": [
        "hiking",
        "panoramic_view",
        "photography"
      ]
    },
    {
      "name": "Hantana Mountain Range",
      "lat": 7.28,
      "lng": 80.62,
      "province": "Central",
      "city": "Kandy",
      "type": "adventure",
      "budget": 3500,
      "season": "dry",
      "duration": 6,
      "rating": 4.5,
      "activities": [
        "hiking",
        "camping",
        "bird_watching"
      ]
    },
    {
      "name": "Degaldoruwa Temple",
      "lat": 7.3167,
      "lng": 80.6833,
      "province": "Central",
      "city": "Kandy",
      "type": "religious",
      "budget": 800,
      "season": "all",
      "duration": 2,
      "rating": 4.2,
      "activities": [
        "worship",
        "cave_paintings",
        "history"
      ]
    },
    {
      "name": "Aluvihara Rock Temple",
      "lat": 7.4833,
      "lng": 80.6167,
      "province": "Central",
      "city": "Matale",
      "type": "religious",
      "budget": 1200,
      "season": "all",
      "duration": 3,
      "rating": 4.3,
      "activities": [
        "worship",
        "caves",
        "history"
      ]
    },
    {
      "name": "Sembuwatta Lake",
      "lat": 7.45,
      "lng": 80.6,
      "province": "Central",
      "city": "Matale",
      "type": "scenic",
      "budget": 1800,
      "season": "all",
      "duration": 4,
      "rating": 4.4,
      "activities": [
        "swimming",
        "photography",
        "picnic"
      ]
    },
    {
      "name": "Riverston Peak",
      "lat": 7.4833,
      "lng": 80.75,
      "province": "Central",
      "city": "Matale",
      "type": "adventure",
      "budget": 2800,
      "season": "dry",
      "duration": 5,
      "rating": 4.6,
      "activities": [
        "hiking",
        "sunrise",
        "photography"
      ]
    },
    {
      "name": "Pitawala Pathana",
      "lat": 7.45,
      "lng": 80.7,
      "province": "Central",
      "city": "Matale",
      "type": "nature",
      "budget": 2500,
      "season": "dry",
      "duration": 5,
      "rating": 4.5,
      "activities": [
        "hiking",
        "grasslands",
        "photography"
      ]
    },
    {
      "name": "Sera Ella Falls",
      "lat": 7.4,
      "lng": 80.7,
      "province": "Central",
      "city": "Matale",
      "type": "scenic",
      "budget": 1500,
      "season": "all",
      "duration": 3,
      "rating": 4.2,
      "activities": [
        "photography",
        "hiking",
        "nature"
      ]
    },
    {
      "name": "Wiltshire Estate",
      "lat": 7.0,
      "lng": 80.75,
      "province": "Central",
      "city": "Nuwara Eliya",
      "type": "scenic",
      "budget": 2000,
      "season": "all",
      "duration": 4,
      "rating": 4.1,
      "activities": [
        "tea_tasting",
        "photography",
        "walking"
      ]
    },
    {
      "name": "Single Tree Hill",
      "lat": 6.97,
      "lng": 80.77,
      "province": "Central",
      "city": "Nuwara Eliya",
      "type": "scenic",
      "budget": 1000,
      "season": "all",
      "duration": 3,
      "rating": 4.3,
      "activities": [
        "photography",
        "hiking",
        "panoramic_view"
      ]
    },
    {
      "name": "Moon Plains",
      "lat": 6.85,
      "lng": 80.8,
      "province": "Central",
      "city": "Nuwara Eliya",
      "type": "nature",
      "budget": 3000,
      "season": "dry",
      "duration": 5,
      "rating": 4.5,
      "activities": [
        "hiking",
        "wildlife",
        "photography"
      ]
    },
    {
      "name": "Shanthipura Temple",
      "lat": 6.94,
      "lng": 80.78,
      "province": "Central",
      "city": "Nuwara Eliya",
      "type": "religious",
      "budget": 300,
      "season": "all",
      "duration": 1,
      "rating": 4.0,
      "activities": [
        "worship",
        "meditation",
        "photography"
      ]
    },
    {
      "name": "Bambaragala Rajamaha Vihara",
      "lat": 6.9,
      "lng": 81.0,
      "province": "Uva",
      "city": "kandy",
      "type": "religious",
      "budget": 800,
      "season": "all",
      "duration": 2,
      "rating": 4.1,
      "activities": [
        "cave_temple",
        "ancient_paintings",
        "meditation"
      ]
    },
    {
      "name": "Dambatenne Tea Factory",
      "lat": 6.8333,
      "lng": 80.8167,
      "province": "Central",
      "city": "Haputale",
      "type": "cultural",
      "budget": 1800,
      "season": "all",
      "duration": 3,
      "rating": 4.3,
      "activities": [
        "factory_tour",
        "tea_tasting",
        "history"
      ]
    },
    {
      "name": "Nagollagama Forest",
      "lat": 7.1,
      "lng": 80.5,
      "province": "Central",
      "city": "Kandy",
      "type": "nature",
      "budget": 1500,
      "season": "all",
      "duration": 4,
      "rating": 4.0,
      "activities": [
        "hiking",
        "bird_watching",
        "nature"
      ]
    },
    {
      "name": "Bible Rock",
      "lat": 7.4,
      "lng": 80.75,
      "province": "Central",
      "city": "Matale",
      "type": "adventure",
      "budget": 2200,
      "season": "dry",
      "duration": 4,
      "rating": 4.5,
      "activities": [
        "climbing",
        "photography",
        "hiking"
      ]
    },
    {
      "name": "Ambuluwawa Tower",
      "lat": 7.2236,
      "lng": 80.5675,
      "province": "Central",
      "city": "Gampola",
      "type": "scenic",
      "budget": 1500,
      "season": "all",
      "duration": 3,
      "rating": 4.6,
      "activities": [
        "climbing",
        "panoramic_view",
        "photography"
      ]
    },
    {
      "name": "Galway's Land National Park",
      "lat": 6.9667,
      "lng": 80.7833,
      "province": "Central",
      "city": "Nuwara Eliya",
      "type": "nature",
      "budget": 1200,
      "season": "all",
      "duration": 3,
      "rating": 4.2,
      "activities": [
        "bird_watching",
        "nature_walks",
        "photography"
      ]
    },
    {
      "name": "Victoria Golf & Country Resort",
      "lat": 7.29,
      "lng": 80.75,
      "province": "Central",
      "city": "Kandy",
      "type": "recreational",
      "budget": 4000,
      "season": "all",
      "duration": 5,
      "rating": 4.3,
      "activities": [
        "golfing",
        "relaxation",
        "dining"
      ]
    },
    {
      "name": "Kotmale Dam Viewpoint",
      "lat": 7.0,
      "lng": 80.6,
      "province": "Central",
      "city": "Kotmale",
      "type": "scenic",
      "budget": 800,
      "season": "all",
      "duration": 2,
      "rating": 4.1,
      "activities": [
        "photography",
        "scenic_drive",
        "nature"
      ]
    },
    {
      "name": "Ramboda Falls",
      "lat": 7.0,
      "lng": 80.7,
      "province": "Central",
      "city": "Ramboda",
      "type": "scenic",
      "budget": 1000,
      "season": "all",
      "duration": 3,
      "rating": 4.4,
      "activities": [
        "photography",
        "hiking",
        "nature"
      ]
    },
    {
      "name": "Hunas Falls",
      "lat": 7.3686,
      "lng": 80.6621,
      "province": "Central",
      "city": "Elkaduwa",
      "type": "scenic",
      "budget": 1200,
      "season": "all",
      "duration": 3,
      "rating": 4.3,
      "activities": [
        "photography",
        "walking",
        "nature"
      ]
    },
    {
      "name": "Sarathchandra Open Air Theatre",
      "lat": 7.2569,
      "lng": 80.5956,
      "province": "Central",
      "city": "Peradeniya",
      "type": "cultural",
      "budget": 500,
      "season": "all",
      "duration": 2,
      "rating": 4.0,
      "activities": [
        "theater",
        "cultural_events",
        "photography"
      ]
    },
    {
      "name": "Nuwara Eliya Post Office",
      "lat": 6.9707,
      "lng": 80.7826,
      "province": "Central",
      "city": "Nuwara Eliya",
      "type": "historical",
      "budget": 200,
      "season": "all",
      "duration": 1,
      "rating": 4.1,
      "activities": [
        "architecture",
        "photography",
        "history"
      ]
    },
    {
      "name": "Dunsinane Falls",
      "lat": 7.0167,
      "lng": 80.6667,
      "province": "Central",
      "city": "Pundaluoya",
      "type": "scenic",
      "budget": 1000,
      "season": "all",
      "duration": 3,
      "rating": 4.2,
      "activities": [
        "photography",
        "hiking",
        "nature"
      ]
    },
    {
      "name": "Mount Pedro (Pidurutalagala)",
      "lat": 7.0,
      "lng": 80.8,
      "province": "Central",
      "city": "Nuwara Eliya",
      "type": "adventure",
      "budget": 2500,
      "season": "dry",
      "duration": 5,
      "rating": 4.5,
      "activities": [
        "hiking",
        "panoramic_view",
        "photography"
      ]
    },
    {
      "name": "Hanthana Tea Museum",
      "lat": 7.26,
      "lng": 80.62,
      "province": "Central",
      "city": "Kandy",
      "type": "cultural",
      "budget": 1000,
      "season": "all",
      "duration": 3,
      "rating": 4.2,
      "activities": [
        "tea_history",
        "museum_tour",
        "photography"
      ]
    },
    {
      "name": "Baker's Falls",
      "lat": 6.8,
      "lng": 80.8,
      "province": "Central",
      "city": "Nuwara Eliya",
      "type": "scenic",
      "budget": 1200,
      "season": "all",
      "duration": 3,
      "rating": 4.4,
      "activities": [
        "hiking",
        "nature",
        "photography"
      ]
    },
    {
      "name": "Galboda Falls",
      "lat": 7.0333,
      "lng": 80.5333,
      "province": "Central",
      "city": "Nawalapitiya",
      "type": "scenic",
      "budget": 1500,
      "season": "all",
      "duration": 4,
      "rating": 4.3,
      "activities": [
        "photography",
        "nature",
        "hiking"
      ]
    },
    {
      "name": "Meemure Village",
      "lat": 7.4639,
      "lng": 80.8889,
      "province": "Central",
      "city": "Kandy",
      "type": "adventure",
      "budget": 3500,
      "season": "dry",
      "duration": 6,
      "rating": 4.6,
      "activities": [
        "hiking",
        "camping",
        "cultural_experience"
      ]
    },
    {
      "name": "Ramboda Tunnel",
      "lat": 7.0,
      "lng": 80.7,
      "province": "Central",
      "city": "Ramboda",
      "type": "historical",
      "budget": 500,
      "season": "all",
      "duration": 1,
      "rating": 4.0,
      "activities": [
        "architecture",
        "photography",
        "history"
      ]
    },
    {
      "name": "Polwaththa Eco Lodge Trails",
      "lat": 7.2919,
      "lng": 80.7073,
      "province": "Central",
      "city": "Kandy",
      "type": "nature",
      "budget": 2500,
      "season": "all",
      "duration": 4,
      "rating": 4.4,
      "activities": [
        "hiking",
        "bird_watching",
        "nature"
      ]
    },
    {
      "name": "Lover's Leap Waterfall",
      "lat": 6.9678,
      "lng": 80.7836,
      "province": "Central",
      "city": "Nuwara Eliya",
      "type": "scenic",
      "budget": 1000,
      "season": "all",
      "duration": 2,
      "rating": 4.2,
      "activities": [
        "photography",
        "hiking",
        "nature"
      ]
    },
    {
      "name": "Ulapane Reservoir",
      "lat": 7.1333,
      "lng": 80.5833,
      "province": "Central",
      "city": "Ulapane",
      "type": "scenic",
      "budget": 800,
      "season": "all",
      "duration": 2,
      "rating": 4.0,
      "activities": [
        "photography",
        "relaxation",
        "nature"
      ]
    },
    {
      "name": "Pedro Tea Estate",
      "lat": 6.95,
      "lng": 80.8,
      "province": "Central",
      "city": "Nuwara Eliya",
      "type": "cultural",
      "budget": 2000,
      "season": "all",
      "duration": 3,
      "rating": 4.3,
      "activities": [
        "factory_tour",
        "tea_tasting",
        "photography"
      ]
    },
    {
      "name": "Kandyan Cultural Centre",
      "lat": 7.2936,
      "lng": 80.641,
      "province": "Central",
      "city": "Kandy",
      "type": "cultural",
      "budget": 1500,
      "season": "all",
      "duration": 2,
      "rating": 4.2,
      "activities": [
        "dance_show",
        "music",
        "cultural_experience"
      ]
    },
    {
      "name": "Galle Fort",
      "lat": 6.0329,
      "lng": 80.2168,
      "province": "Southern",
      "city": "Galle",
      "type": "historical",
      "budget": 2000,
      "season": "all",
      "duration": 4,
      "rating": 4.6,
      "activities": [
        "walking",
        "shopping",
        "photography"
      ]
    },
    {
      "name": "Unawatuna Beach",
      "lat": 6.01,
      "lng": 80.2506,
      "province": "Southern",
      "city": "Unawatuna",
      "type": "beach",
      "budget": 2500,
      "season": "dry",
      "duration": 6,
      "rating": 4.4,
      "activities": [
        "swimming",
        "snorkeling",
        "dining"
      ]
    },
    {
      "name": "Mirissa Beach",
      "lat": 5.9487,
      "lng": 80.4607,
      "province": "Southern",
      "city": "Mirissa",
      "type": "beach",
      "budget": 3000,
      "season": "dry",
      "duration": 6,
      "rating": 4.5,
      "activities": [
        "whale_watching",
        "swimming",
        "surfing"
      ]
    },
    {
      "name": "Yala National Park",
      "lat": 6.372,
      "lng": 81.5197,
      "province": "Southern",
      "city": "Tissamaharama",
      "type": "wildlife",
      "budget": 8000,
      "season": "dry",
      "duration": 8,
      "rating": 4.7,
      "activities": [
        "safari",
        "photography",
        "wildlife"
      ]
    },
    {
      "name": "Kataragama Temple",
      "lat": 6.4138,
      "lng": 81.3311,
      "province": "Southern",
      "city": "Kataragama",
      "type": "religious",
      "budget": 1500,
      "season": "all",
      "duration": 3,
      "rating": 4.3,
      "activities": [
        "worship",
        "pilgrimage",
        "cultural"
      ]
    },
    {
      "name": "Bentota Beach",
      "lat": 6.4269,
      "lng": 79.9956,
      "province": "Southern",
      "city": "Bentota",
      "type": "beach",
      "budget": 4000,
      "season": "dry",
      "duration": 6,
      "rating": 4.2,
      "activities": [
        "water_sports",
        "relaxation",
        "dining"
      ]
    },
    {
      "name": "Hikkaduwa Beach",
      "lat": 6.1391,
      "lng": 80.102,
      "province": "Southern",
      "city": "Hikkaduwa",
      "type": "beach",
      "budget": 3500,
      "season": "dry",
      "duration": 5,
      "rating": 4.2,
      "activities": [
        "surfing",
        "snorkeling",
        "nightlife"
      ]
    },
    {
      "name": "Weligama Bay",
      "lat": 5.975,
      "lng": 80.4297,
      "province": "Southern",
      "city": "Weligama",
      "type": "beach",
      "budget": 2800,
      "season": "dry",
      "duration": 4,
      "rating": 4.1,
      "activities": [
        "surfing",
        "stilt_fishing",
        "photography"
      ]
    },
    {
      "name": "Mulkirigala Rock Temple",
      "lat": 6.1391,
      "lng": 80.102,
      "province": "Southern",
      "city": "Tangalle",
      "type": "religious",
      "budget": 1800,
      "season": "all",
      "duration": 4,
      "rating": 4.4,
      "activities": [
        "climbing",
        "worship",
        "archaeology"
      ]
    },
    {
      "name": "Tangalle Beach",
      "lat": 6.0329,
      "lng": 80.7894,
      "province": "Southern",
      "city": "Tangalle",
      "type": "beach",
      "budget": 3200,
      "season": "dry",
      "duration": 5,
      "rating": 4.3,
      "activities": [
        "swimming",
        "relaxation",
        "turtle_watching"
      ]
    },
    {
      "name": "Rekawa Turtle Sanctuary",
      "lat": 6.0329,
      "lng": 80.7894,
      "province": "Southern",
      "city": "Tangalle",
      "type": "wildlife",
      "budget": 2000,
      "season": "all",
      "duration": 3,
      "rating": 4.5,
      "activities": [
        "turtle_watching",
        "conservation",
        "night_tours"
      ]
    },
    {
      "name": "Bundala National Park",
      "lat": 6.1967,
      "lng": 81.2333,
      "province": "Southern",
      "city": "Hambantota",
      "type": "wildlife",
      "budget": 4500,
      "season": "dry",
      "duration": 6,
      "rating": 4.2,
      "activities": [
        "bird_watching",
        "safari",
        "photography"
      ]
    },
    {
      "name": "Hummanaya Blowhole",
      "lat": 6.0329,
      "lng": 80.7894,
      "province": "Southern",
      "city": "Dickwella",
      "type": "nature",
      "budget": 800,
      "season": "all",
      "duration": 2,
      "rating": 4.0,
      "activities": [
        "photography",
        "sightseeing",
        "nature"
      ]
    },
    {
      "name": "Coconut Tree Hill",
      "lat": 5.9487,
      "lng": 80.4607,
      "province": "Southern",
      "city": "Mirissa",
      "type": "scenic",
      "budget": 600,
      "season": "all",
      "duration": 2,
      "rating": 4.2,
      "activities": [
        "photography",
        "sunset",
        "hiking"
      ]
    },
    {
      "name": "Polhena Beach",
      "lat": 5.9926,
      "lng": 80.5669,
      "province": "Southern",
      "city": "Matara",
      "type": "beach",
      "budget": 2200,
      "season": "dry",
      "duration": 4,
      "rating": 4.1,
      "activities": [
        "swimming",
        "snorkeling",
        "diving"
      ]
    },
    {
      "name": "Matara Fort",
      "lat": 5.9485,
      "lng": 80.5353,
      "province": "Southern",
      "city": "Matara",
      "type": "historical",
      "budget": 1000,
      "season": "all",
      "duration": 2,
      "rating": 4.0,
      "activities": [
        "history",
        "architecture",
        "photography"
      ]
    },
    {
      "name": "Dondra Lighthouse",
      "lat": 5.9265,
      "lng": 80.5975,
      "province": "Southern",
      "city": "Dondra",
      "type": "historical",
      "budget": 800,
      "season": "all",
      "duration": 2,
      "rating": 4.1,
      "activities": [
        "photography",
        "history",
        "sightseeing"
      ]
    },
    {
      "name": "Kande Vihara Temple",
      "lat": 6.48,
      "lng": 80.04,
      "province": "Southern",
      "city": "Beruwala",
      "type": "religious",
      "budget": 600,
      "season": "all",
      "duration": 2,
      "rating": 4.1,
      "activities": [
        "worship",
        "panoramic_view",
        "photography"
      ]
    },
    {
      "name": "Beruwala Beach",
      "lat": 6.48,
      "lng": 80.04,
      "province": "Southern",
      "city": "Beruwala",
      "type": "beach",
      "budget": 3000,
      "season": "dry",
      "duration": 5,
      "rating": 4.1,
      "activities": [
        "swimming",
        "diving",
        "water_sports"
      ]
    },
    {
      "name": "Kosgoda Turtle Hatchery",
      "lat": 6.35,
      "lng": 80.02,
      "province": "Southern",
      "city": "Kosgoda",
      "type": "wildlife",
      "budget": 1800,
      "season": "all",
      "duration": 3,
      "rating": 4.4,
      "activities": [
        "turtle_watching",
        "conservation",
        "education"
      ]
    },
    {
      "name": "Balapitiya Beach",
      "lat": 6.2833,
      "lng": 80.0167,
      "province": "Southern",
      "city": "Balapitiya",
      "type": "beach",
      "budget": 2500,
      "season": "dry",
      "duration": 4,
      "rating": 4.0,
      "activities": [
        "swimming",
        "boat_rides",
        "fishing"
      ]
    },
    {
      "name": "Madu River",
      "lat": 6.2833,
      "lng": 80.0167,
      "province": "Southern",
      "city": "Balapitiya",
      "type": "nature",
      "budget": 2000,
      "season": "all",
      "duration": 4,
      "rating": 4.3,
      "activities": [
        "boat_safari",
        "mangroves",
        "bird_watching"
      ]
    },
    {
      "name": "Lunuganga Garden",
      "lat": 6.4,
      "lng": 79.98,
      "province": "Southern",
      "city": "Bentota",
      "type": "cultural",
      "budget": 1200,
      "season": "all",
      "duration": 3,
      "rating": 4.2,
      "activities": [
        "garden_tour",
        "architecture",
        "photography"
      ]
    },
    {
      "name": "Bentota River",
      "lat": 6.4269,
      "lng": 79.9956,
      "province": "Southern",
      "city": "Bentota",
      "type": "nature",
      "budget": 1800,
      "season": "all",
      "duration": 3,
      "rating": 4.1,
      "activities": [
        "boat_rides",
        "mangroves",
        "fishing"
      ]
    },
    {
      "name": "Galapatha Raja Maha Vihara",
      "lat": 6.4269,
      "lng": 79.9956,
      "province": "Southern",
      "city": "Bentota",
      "type": "religious",
      "budget": 400,
      "season": "all",
      "duration": 1,
      "rating": 4.0,
      "activities": [
        "worship",
        "history",
        "photography"
      ]
    },
    {
      "name": "Jungle Beach",
      "lat": 6.01,
      "lng": 80.2506,
      "province": "Southern",
      "city": "Unawatuna",
      "type": "beach",
      "budget": 2000,
      "season": "dry",
      "duration": 4,
      "rating": 4.2,
      "activities": [
        "swimming",
        "snorkeling",
        "relaxation"
      ]
    },
    {
      "name": "Japanese Peace Pagoda",
      "lat": 6.01,
      "lng": 80.2506,
      "province": "Southern",
      "city": "Unawatuna",
      "type": "religious",
      "budget": 800,
      "season": "all",
      "duration": 2,
      "rating": 4.3,
      "activities": [
        "meditation",
        "panoramic_view",
        "photography"
      ]
    },
    {
      "name": "Galle National Museum",
      "lat": 6.0329,
      "lng": 80.2168,
      "province": "Southern",
      "city": "Galle",
      "type": "cultural",
      "budget": 700,
      "season": "all",
      "duration": 2,
      "rating": 4.0,
      "activities": [
        "history",
        "artifacts",
        "education"
      ]
    },
    {
      "name": "Dutch Reformed Church",
      "lat": 6.0329,
      "lng": 80.2168,
      "province": "Southern",
      "city": "Galle",
      "type": "historical",
      "budget": 500,
      "season": "all",
      "duration": 1,
      "rating": 4.1,
      "activities": [
        "architecture",
        "history",
        "photography"
      ]
    },
    {
      "name": "Galle Lighthouse",
      "lat": 6.0329,
      "lng": 80.2168,
      "province": "Southern",
      "city": "Galle",
      "type": "historical",
      "budget": 300,
      "season": "all",
      "duration": 1,
      "rating": 4.2,
      "activities": [
        "photography",
        "sightseeing",
        "history"
      ]
    },
    {
      "name": "Martin Wickramasinghe Folk Museum",
      "lat": 6.1391,
      "lng": 80.102,
      "province": "Southern",
      "city": "Koggala",
      "type": "cultural",
      "budget": 900,
      "season": "all",
      "duration": 3,
      "rating": 4.0,
      "activities": [
        "culture",
        "education",
        "artifacts"
      ]
    },
    {
      "name": "Koggala Lake",
      "lat": 6.1391,
      "lng": 80.102,
      "province": "Southern",
      "city": "Koggala",
      "type": "nature",
      "budget": 1500,
      "season": "all",
      "duration": 3,
      "rating": 4.1,
      "activities": [
        "boat_rides",
        "island_hopping",
        "bird_watching"
      ]
    },
    {
      "name": "Handunugoda Tea Estate",
      "lat": 6.05,
      "lng": 80.3,
      "province": "Southern",
      "city": "Ahangama",
      "type": "cultural",
      "budget": 1800,
      "season": "all",
      "duration": 3,
      "rating": 4.2,
      "activities": [
        "tea_tasting",
        "factory_tour",
        "education"
      ]
    },
    {
      "name": "Stilt Fishermen of Weligama",
      "lat": 5.975,
      "lng": 80.4297,
      "province": "Southern",
      "city": "Weligama",
      "type": "cultural",
      "budget": 1000,
      "season": "all",
      "duration": 2,
      "rating": 4.3,
      "activities": [
        "photography",
        "cultural",
        "fishing"
      ]
    },
    {
      "name": "Snake Island",
      "lat": 5.975,
      "lng": 80.4297,
      "province": "Southern",
      "city": "Weligama",
      "type": "nature",
      "budget": 1200,
      "season": "all",
      "duration": 2,
      "rating": 4.0,
      "activities": [
        "walking",
        "temple_visit",
        "photography"
      ]
    },
    {
      "name": "Parrot Rock",
      "lat": 5.9487,
      "lng": 80.4607,
      "province": "Southern",
      "city": "Mirissa",
      "type": "scenic",
      "budget": 500,
      "season": "all",
      "duration": 1,
      "rating": 4.1,
      "activities": [
        "climbing",
        "photography",
        "sunset"
      ]
    },
    {
      "name": "Secret Beach",
      "lat": 5.9487,
      "lng": 80.4607,
      "province": "Southern",
      "city": "Mirissa",
      "type": "beach",
      "budget": 1500,
      "season": "dry",
      "duration": 3,
      "rating": 4.2,
      "activities": [
        "swimming",
        "relaxation",
        "photography"
      ]
    },
    {
      "name": "Weherahena Temple",
      "lat": 5.9926,
      "lng": 80.5669,
      "province": "Southern",
      "city": "Matara",
      "type": "religious",
      "budget": 800,
      "season": "all",
      "duration": 2,
      "rating": 4.2,
      "activities": [
        "worship",
        "tunnel_exploration",
        "art"
      ]
    },
    {
      "name": "Star Fort Matara",
      "lat": 5.9485,
      "lng": 80.5353,
      "province": "Southern",
      "city": "Matara",
      "type": "historical",
      "budget": 600,
      "season": "all",
      "duration": 2,
      "rating": 4.0,
      "activities": [
        "history",
        "architecture",
        "photography"
      ]
    },
    {
      "name": "Medaketiya Beach",
      "lat": 5.92,
      "lng": 80.58,
      "province": "Southern",
      "city": "Dikwella",
      "type": "beach",
      "budget": 2000,
      "season": "dry",
      "duration": 4,
      "rating": 4.1,
      "activities": [
        "swimming",
        "surfing",
        "relaxation"
      ]
    },
    {
      "name": "Wewurukannala Vihara",
      "lat": 5.92,
      "lng": 80.58,
      "province": "Southern",
      "city": "Dikwella",
      "type": "religious",
      "budget": 1000,
      "season": "all",
      "duration": 3,
      "rating": 4.3,
      "activities": [
        "worship",
        "giant_statue",
        "tunnels"
      ]
    },
    {
      "name": "Hiriketiya Beach",
      "lat": 6.0,
      "lng": 80.75,
      "province": "Southern",
      "city": "Dikwella",
      "type": "beach",
      "budget": 2500,
      "season": "dry",
      "duration": 5,
      "rating": 4.4,
      "activities": [
        "surfing",
        "swimming",
        "yoga"
      ]
    },
    {
      "name": "Kudawella Blowhole",
      "lat": 6.0,
      "lng": 80.75,
      "province": "Southern",
      "city": "Kudawella",
      "type": "nature",
      "budget": 600,
      "season": "all",
      "duration": 2,
      "rating": 4.0,
      "activities": [
        "photography",
        "nature",
        "sightseeing"
      ]
    },
    {
      "name": "Mulgirigala Ancient Temple",
      "lat": 6.12,
      "lng": 80.74,
      "province": "Southern",
      "city": "Mulgirigala",
      "type": "religious",
      "budget": 1500,
      "season": "all",
      "duration": 4,
      "rating": 4.4,
      "activities": [
        "climbing",
        "cave_temples",
        "frescoes"
      ]
    },
    {
      "name": "Kappaliya Beach",
      "lat": 6.05,
      "lng": 80.8,
      "province": "Southern",
      "city": "Tangalle",
      "type": "beach",
      "budget": 2200,
      "season": "dry",
      "duration": 4,
      "rating": 4.2,
      "activities": [
        "swimming",
        "turtle_watching",
        "relaxation"
      ]
    },
    {
      "name": "Kalametiya Bird Sanctuary",
      "lat": 6.1,
      "lng": 81.0,
      "province": "Southern",
      "city": "Tangalle",
      "type": "wildlife",
      "budget": 2000,
      "season": "all",
      "duration": 4,
      "rating": 4.3,
      "activities": [
        "bird_watching",
        "photography",
        "boat_safari"
      ]
    },
    {
      "name": "Ussangoda National Park",
      "lat": 6.15,
      "lng": 81.1,
      "province": "Southern",
      "city": "Ambalantota",
      "type": "nature",
      "budget": 1800,
      "season": "all",
      "duration": 3,
      "rating": 4.1,
      "activities": [
        "red_sand",
        "archaeology",
        "sunset"
      ]
    },
    {
      "name": "Hambantota Port",
      "lat": 6.124,
      "lng": 81.1185,
      "province": "Southern",
      "city": "Hambantota",
      "type": "cultural",
      "budget": 1000,
      "season": "all",
      "duration": 2,
      "rating": 3.9,
      "activities": [
        "modern_architecture",
        "harbor_view",
        "photography"
      ]
    },
    {
      "name": "Ridiyagama Safari Park",
      "lat": 6.2,
      "lng": 80.85,
      "province": "Southern",
      "city": "Hambantota",
      "type": "wildlife",
      "budget": 3500,
      "season": "all",
      "duration": 5,
      "rating": 4.2,
      "activities": [
        "safari",
        "wildlife",
        "photography"
      ]
    },
    {
      "name": "Tissamaharama Raja Maha Vihara",
      "lat": 6.2833,
      "lng": 81.2833,
      "province": "Southern",
      "city": "Tissamaharama",
      "type": "religious",
      "budget": 800,
      "season": "all",
      "duration": 2,
      "rating": 4.2,
      "activities": [
        "worship",
        "ancient_stupas",
        "archaeology"
      ]
    },
    {
      "name": "Tissa Wewa",
      "lat": 6.2833,
      "lng": 81.2833,
      "province": "Southern",
      "city": "Tissamaharama",
      "type": "nature",
      "budget": 1000,
      "season": "all",
      "duration": 3,
      "rating": 4.1,
      "activities": [
        "bird_watching",
        "boat_rides",
        "sunset"
      ]
    },
    {
      "name": "Kirinda Beach",
      "lat": 6.3,
      "lng": 81.4,
      "province": "Southern",
      "city": "Kirinda",
      "type": "beach",
      "budget": 1800,
      "season": "dry",
      "duration": 3,
      "rating": 4.0,
      "activities": [
        "swimming",
        "temple_visit",
        "fishing"
      ]
    },
    {
      "name": "Kirinda Temple",
      "lat": 6.3,
      "lng": 81.4,
      "province": "Southern",
      "city": "Kirinda",
      "type": "religious",
      "budget": 500,
      "season": "all",
      "duration": 2,
      "rating": 4.1,
      "activities": [
        "worship",
        "ocean_view",
        "history"
      ]
    },
    {
      "name": "Yatala Wehera",
      "lat": 6.4,
      "lng": 81.3,
      "province": "Southern",
      "city": "Tissamaharama",
      "type": "historical",
      "budget": 700,
      "season": "all",
      "duration": 2,
      "rating": 4.0,
      "activities": [
        "archaeology",
        "ancient_stupa",
        "history"
      ]
    },
    {
      "name": "Akurala Beach",
      "lat": 6.2364,
      "lng": 80.093,
      "province": "Southern",
      "city": "Akurala",
      "type": "beach",
      "budget": 2000,
      "season": "dry",
      "duration": 4,
      "rating": 4.0,
      "activities": [
        "swimming",
        "photography",
        "relaxation"
      ]
    },
    {
      "name": "Seenigama Devalaya",
      "lat": 6.1401,
      "lng": 80.0976,
      "province": "Southern",
      "city": "Seenigama",
      "type": "religious",
      "budget": 500,
      "season": "all",
      "duration": 1,
      "rating": 4.2,
      "activities": [
        "worship",
        "island_visit",
        "photography"
      ]
    },
    {
      "name": "Moonstone Mines",
      "lat": 6.1833,
      "lng": 80.1167,
      "province": "Southern",
      "city": "Meetiyagoda",
      "type": "cultural",
      "budget": 1500,
      "season": "all",
      "duration": 2,
      "rating": 4.1,
      "activities": [
        "mine_tour",
        "gem_shops",
        "education"
      ]
    },
    {
      "name": "Ahungalla Beach",
      "lat": 6.3319,
      "lng": 80.0367,
      "province": "Southern",
      "city": "Ahungalla",
      "type": "beach",
      "budget": 2500,
      "season": "dry",
      "duration": 4,
      "rating": 4.1,
      "activities": [
        "swimming",
        "sunbathing",
        "photography"
      ]
    },
    {
      "name": "Thotagamuwa Rajamaha Viharaya",
      "lat": 6.165,
      "lng": 80.1,
      "province": "Southern",
      "city": "Hikkaduwa",
      "type": "religious",
      "budget": 600,
      "season": "all",
      "duration": 2,
      "rating": 4.0,
      "activities": [
        "worship",
        "history",
        "photography"
      ]
    },
    {
      "name": "Galle Fish Market",
      "lat": 6.035,
      "lng": 80.2167,
      "province": "Southern",
      "city": "Galle",
      "type": "cultural",
      "budget": 400,
      "season": "all",
      "duration": 1,
      "rating": 3.9,
      "activities": [
        "local_food",
        "photography",
        "market_walk"
      ]
    },
    {
      "name": "Mahinda Rajapaksa Cricket Stadium",
      "lat": 6.1271,
      "lng": 81.118,
      "province": "Southern",
      "city": "Sooriyawewa",
      "type": "cultural",
      "budget": 1000,
      "season": "all",
      "duration": 2,
      "rating": 4.0,
      "activities": [
        "sports_tour",
        "photography",
        "events"
      ]
    },
    {
      "name": "Rakwana Rainforest",
      "lat": 6.4667,
      "lng": 80.5833,
      "province": "Southern",
      "city": "Rakwana",
      "type": "nature",
      "budget": 2500,
      "season": "all",
      "duration": 5,
      "rating": 4.3,
      "activities": [
        "hiking",
        "bird_watching",
        "nature"
      ]
    },
    {
      "name": "Kirala Kelle Sanctuary",
      "lat": 6.125,
      "lng": 81.1,
      "province": "Southern",
      "city": "Matara",
      "type": "wildlife",
      "budget": 1200,
      "season": "all",
      "duration": 3,
      "rating": 4.1,
      "activities": [
        "bird_watching",
        "photography",
        "nature_walks"
      ]
    },
    {
      "name": "Batatha Pahana Temple",
      "lat": 6.1167,
      "lng": 81.1,
      "province": "Southern",
      "city": "Matara",
      "type": "religious",
      "budget": 500,
      "season": "all",
      "duration": 2,
      "rating": 4.0,
      "activities": [
        "worship",
        "history",
        "photography"
      ]
    },
    {
      "name": "Telwatta Bird Sanctuary",
      "lat": 6.165,
      "lng": 80.1167,
      "province": "Southern",
      "city": "Hikkaduwa",
      "type": "wildlife",
      "budget": 1200,
      "season": "all",
      "duration": 3,
      "rating": 4.1,
      "activities": [
        "bird_watching",
        "nature_walks",
        "photography"
      ]
    },
    {
      "name": "Dodanduwa Lagoon",
      "lat": 6.1228,
      "lng": 80.0958,
      "province": "Southern",
      "city": "Dodanduwa",
      "type": "nature",
      "budget": 1000,
      "season": "all",
      "duration": 2,
      "rating": 4.0,
      "activities": [
        "boat_rides",
        "fishing",
        "photography"
      ]
    },
    {
      "name": "Ariyapala Mask Museum",
      "lat": 6.3294,
      "lng": 80.0378,
      "province": "Southern",
      "city": "Ambalangoda",
      "type": "cultural",
      "budget": 700,
      "season": "all",
      "duration": 2,
      "rating": 4.2,
      "activities": [
        "museum_tour",
        "mask_making",
        "photography"
      ]
    },
    {
      "name": "Ambalangoda Beach",
      "lat": 6.2347,
      "lng": 80.0546,
      "province": "Southern",
      "city": "Ambalangoda",
      "type": "beach",
      "budget": 2200,
      "season": "dry",
      "duration": 4,
      "rating": 4.0,
      "activities": [
        "swimming",
        "fishing",
        "sunbathing"
      ]
    },
    {
      "name": "Seenimodara Beach",
      "lat": 5.96,
      "lng": 80.675,
      "province": "Southern",
      "city": "Tangalle",
      "type": "beach",
      "budget": 2000,
      "season": "dry",
      "duration": 3,
      "rating": 4.1,
      "activities": [
        "relaxation",
        "swimming",
        "photography"
      ]
    },
    {
      "name": "Goyambokka Beach",
      "lat": 5.94,
      "lng": 80.695,
      "province": "Southern",
      "city": "Tangalle",
      "type": "beach",
      "budget": 2200,
      "season": "dry",
      "duration": 3,
      "rating": 4.2,
      "activities": [
        "swimming",
        "relaxation",
        "sunset"
      ]
    },
    {
      "name": "Mawella Lagoon",
      "lat": 5.96,
      "lng": 80.7,
      "province": "Southern",
      "city": "Tangalle",
      "type": "nature",
      "budget": 1500,
      "season": "all",
      "duration": 3,
      "rating": 4.0,
      "activities": [
        "kayaking",
        "bird_watching",
        "boat_rides"
      ]
    },
    {
      "name": "Dickwella Beach",
      "lat": 5.9833,
      "lng": 80.7,
      "province": "Southern",
      "city": "Dikwella",
      "type": "beach",
      "budget": 2100,
      "season": "dry",
      "duration": 4,
      "rating": 4.1,
      "activities": [
        "swimming",
        "surfing",
        "relaxation"
      ]
    },
    {
      "name": "Nilwella Beach",
      "lat": 5.95,
      "lng": 80.7333,
      "province": "Southern",
      "city": "Nilwella",
      "type": "beach",
      "budget": 1800,
      "season": "dry",
      "duration": 3,
      "rating": 4.0,
      "activities": [
        "swimming",
        "fishing",
        "photography"
      ]
    },
    {
      "name": "Kalametiya Lagoon",
      "lat": 6.1,
      "lng": 81.03,
      "province": "Southern",
      "city": "Tangalle",
      "type": "nature",
      "budget": 1600,
      "season": "all",
      "duration": 3,
      "rating": 4.2,
      "activities": [
        "bird_watching",
        "boat_safari",
        "photography"
      ]
    },
    {
      "name": "Telwatta Bird Sanctuary",
      "lat": 6.165,
      "lng": 80.1167,
      "province": "Southern",
      "city": "Hikkaduwa",
      "type": "wildlife",
      "budget": 1200,
      "season": "all",
      "duration": 3,
      "rating": 4.1,
      "activities": [
        "bird_watching",
        "nature_walks",
        "photography"
      ]
    },
    {
      "name": "Dodanduwa Lagoon",
      "lat": 6.1228,
      "lng": 80.0958,
      "province": "Southern",
      "city": "Dodanduwa",
      "type": "nature",
      "budget": 1000,
      "season": "all",
      "duration": 2,
      "rating": 4.0,
      "activities": [
        "boat_rides",
        "fishing",
        "photography"
      ]
    },
    {
      "name": "Ariyapala Mask Museum",
      "lat": 6.3294,
      "lng": 80.0378,
      "province": "Southern",
      "city": "Ambalangoda",
      "type": "cultural",
      "budget": 700,
      "season": "all",
      "duration": 2,
      "rating": 4.2,
      "activities": [
        "museum_tour",
        "mask_making",
        "photography"
      ]
    },
    {
      "name": "Ambalangoda Beach",
      "lat": 6.2347,
      "lng": 80.0546,
      "province": "Southern",
      "city": "Ambalangoda",
      "type": "beach",
      "budget": 2200,
      "season": "dry",
      "duration": 4,
      "rating": 4.0,
      "activities": [
        "swimming",
        "fishing",
        "sunbathing"
      ]
    },
    {
      "name": "Seenimodara Beach",
      "lat": 5.96,
      "lng": 80.675,
      "province": "Southern",
      "city": "Tangalle",
      "type": "beach",
      "budget": 2000,
      "season": "dry",
      "duration": 3,
      "rating": 4.1,
      "activities": [
        "relaxation",
        "swimming",
        "photography"
      ]
    },
    {
      "name": "Goyambokka Beach",
      "lat": 5.94,
      "lng": 80.695,
      "province": "Southern",
      "city": "Tangalle",
      "type": "beach",
      "budget": 2200,
      "season": "dry",
      "duration": 3,
      "rating": 4.2,
      "activities": [
        "swimming",
        "relaxation",
        "sunset"
      ]
    },
    {
      "name": "Mawella Lagoon",
      "lat": 5.96,
      "lng": 80.7,
      "province": "Southern",
      "city": "Tangalle",
      "type": "nature",
      "budget": 1500,
      "season": "all",
      "duration": 3,
      "rating": 4.0,
      "activities": [
        "kayaking",
        "bird_watching",
        "boat_rides"
      ]
    },
    {
      "name": "Dickwella Beach",
      "lat": 5.9833,
      "lng": 80.7,
      "province": "Southern",
      "city": "Dikwella",
      "type": "beach",
      "budget": 2100,
      "season": "dry",
      "duration": 4,
      "rating": 4.1,
      "activities": [
        "swimming",
        "surfing",
        "relaxation"
      ]
    },
    {
      "name": "Nilwella Beach",
      "lat": 5.95,
      "lng": 80.7333,
      "province": "Southern",
      "city": "Nilwella",
      "type": "beach",
      "budget": 1800,
      "season": "dry",
      "duration": 3,
      "rating": 4.0,
      "activities": [
        "swimming",
        "fishing",
        "photography"
      ]
    },
    {
      "name": "Kalametiya Lagoon",
      "lat": 6.1,
      "lng": 81.03,
      "province": "Southern",
      "city": "Tangalle",
      "type": "nature",
      "budget": 1600,
      "season": "all",
      "duration": 3,
      "rating": 4.2,
      "activities": [
        "bird_watching",
        "boat_safari",
        "photography"
      ]
    },
    {
      "name": "Arugam Bay",
      "lat": 6.8396,
      "lng": 81.8357,
      "province": "Eastern",
      "city": "Arugam Bay",
      "type": "beach",
      "budget": 3500,
      "season": "dry",
      "duration": 7,
      "rating": 4.6,
      "activities": [
        "surfing",
        "wildlife",
        "relaxation"
      ]
    },
    {
      "name": "Batticaloa Fort",
      "lat": 7.7102,
      "lng": 81.6924,
      "province": "Eastern",
      "city": "Batticaloa",
      "type": "historical",
      "budget": 1500,
      "season": "all",
      "duration": 3,
      "rating": 4.0,
      "activities": [
        "history",
        "photography",
        "cultural"
      ]
    },
    {
      "name": "Pasikudah Beach",
      "lat": 7.9356,
      "lng": 81.5564,
      "province": "Eastern",
      "city": "Pasikudah",
      "type": "beach",
      "budget": 4500,
      "season": "dry",
      "duration": 6,
      "rating": 4.3,
      "activities": [
        "swimming",
        "water_sports",
        "relaxation"
      ]
    },
    {
      "name": "Kalkudah Beach",
      "lat": 7.9356,
      "lng": 81.5564,
      "province": "Eastern",
      "city": "Kalkudah",
      "type": "beach",
      "budget": 4000,
      "season": "dry",
      "duration": 5,
      "rating": 4.2,
      "activities": [
        "swimming",
        "diving",
        "fishing"
      ]
    },
    {
      "name": "Batticaloa Lagoon",
      "lat": 7.7102,
      "lng": 81.6924,
      "province": "Eastern",
      "city": "Batticaloa",
      "type": "nature",
      "budget": 1800,
      "season": "all",
      "duration": 4,
      "rating": 4.1,
      "activities": [
        "boat_rides",
        "bird_watching",
        "fishing"
      ]
    },
    {
      "name": "Thirukkovil Beach",
      "lat": 7.15,
      "lng": 81.85,
      "province": "Eastern",
      "city": "Thirukkovil",
      "type": "beach",
      "budget": 2800,
      "season": "dry",
      "duration": 5,
      "rating": 4.0,
      "activities": [
        "surfing",
        "swimming",
        "relaxation"
      ]
    },
    {
      "name": "Lahugala National Park",
      "lat": 7.2167,
      "lng": 81.7,
      "province": "Eastern",
      "city": "Lahugala",
      "type": "wildlife",
      "budget": 3500,
      "season": "dry",
      "duration": 5,
      "rating": 4.2,
      "activities": [
        "elephant_watching",
        "safari",
        "photography"
      ]
    },
    {
      "name": "Kumana National Park",
      "lat": 6.6167,
      "lng": 81.7333,
      "province": "Eastern",
      "city": "Kumana",
      "type": "wildlife",
      "budget": 5000,
      "season": "dry",
      "duration": 7,
      "rating": 4.4,
      "activities": [
        "bird_watching",
        "safari",
        "photography"
      ]
    },
    {
      "name": "Gal Oya National Park",
      "lat": 7.2333,
      "lng": 81.35,
      "province": "Eastern",
      "city": "Ampara",
      "type": "wildlife",
      "budget": 6000,
      "season": "dry",
      "duration": 8,
      "rating": 4.5,
      "activities": [
        "elephant_watching",
        "boat_safari",
        "hiking"
      ]
    },
    {
      "name": "Senanayake Samudraya",
      "lat": 7.2333,
      "lng": 81.35,
      "province": "Eastern",
      "city": "Ampara",
      "type": "nature",
      "budget": 2000,
      "season": "all",
      "duration": 4,
      "rating": 4.3,
      "activities": [
        "boat_rides",
        "fishing",
        "bird_watching"
      ]
    },
    {
      "name": "Magul Maha Vihara",
      "lat": 6.9,
      "lng": 81.8,
      "province": "Eastern",
      "city": "Lahugala",
      "type": "historical",
      "budget": 1200,
      "season": "all",
      "duration": 3,
      "rating": 4.2,
      "activities": [
        "archaeology",
        "history",
        "photography"
      ]
    },
    {
      "name": "Muhudu Maha Vihara",
      "lat": 6.8,
      "lng": 81.85,
      "province": "Eastern",
      "city": "Pottuvil",
      "type": "religious",
      "budget": 800,
      "season": "all",
      "duration": 2,
      "rating": 4.1,
      "activities": [
        "worship",
        "ocean_view",
        "history"
      ]
    },
    {
      "name": "Okanda Temple",
      "lat": 6.7,
      "lng": 81.88,
      "province": "Eastern",
      "city": "Okanda",
      "type": "religious",
      "budget": 1000,
      "season": "all",
      "duration": 3,
      "rating": 4.3,
      "activities": [
        "pilgrimage",
        "beach_temple",
        "cultural"
      ]
    },
    {
      "name": "Crocodile Rock",
      "lat": 6.8396,
      "lng": 81.8357,
      "province": "Eastern",
      "city": "Arugam Bay",
      "type": "scenic",
      "budget": 500,
      "season": "all",
      "duration": 2,
      "rating": 4.2,
      "activities": [
        "photography",
        "wildlife",
        "surfing"
      ]
    },
    {
      "name": "Elephant Rock",
      "lat": 6.83,
      "lng": 81.84,
      "province": "Eastern",
      "city": "Arugam Bay",
      "type": "scenic",
      "budget": 600,
      "season": "all",
      "duration": 2,
      "rating": 4.1,
      "activities": [
        "photography",
        "swimming",
        "climbing"
      ]
    },
    {
      "name": "Whiskey Point",
      "lat": 6.85,
      "lng": 81.83,
      "province": "Eastern",
      "city": "Arugam Bay",
      "type": "beach",
      "budget": 2500,
      "season": "dry",
      "duration": 4,
      "rating": 4.4,
      "activities": [
        "surfing",
        "swimming",
        "relaxation"
      ]
    },
    {
      "name": "Pottuvil Point",
      "lat": 6.87,
      "lng": 81.82,
      "province": "Eastern",
      "city": "Pottuvil",
      "type": "beach",
      "budget": 3000,
      "season": "dry",
      "duration": 5,
      "rating": 4.3,
      "activities": [
        "surfing",
        "lagoon_safari",
        "wildlife"
      ]
    },
    {
      "name": "Pottuvil Lagoon",
      "lat": 6.87,
      "lng": 81.82,
      "province": "Eastern",
      "city": "Pottuvil",
      "type": "nature",
      "budget": 2200,
      "season": "all",
      "duration": 4,
      "rating": 4.2,
      "activities": [
        "boat_safari",
        "bird_watching",
        "crocodile_watching"
      ]
    },
    {
      "name": "Panama Beach",
      "lat": 6.75,
      "lng": 81.87,
      "province": "Eastern",
      "city": "Panama",
      "type": "beach",
      "budget": 2800,
      "season": "dry",
      "duration": 5,
      "rating": 4.1,
      "activities": [
        "swimming",
        "surfing",
        "turtle_watching"
      ]
    },
    {
      "name": "Kudumbigala Monastery",
      "lat": 6.7,
      "lng": 81.85,
      "province": "Eastern",
      "city": "Panama",
      "type": "religious",
      "budget": 1500,
      "season": "all",
      "duration": 4,
      "rating": 4.4,
      "activities": [
        "meditation",
        "climbing",
        "forest_monastery"
      ]
    },
    {
      "name": "Mandur",
      "lat": 6.65,
      "lng": 81.88,
      "province": "Eastern",
      "city": "Mandur",
      "type": "beach",
      "budget": 2000,
      "season": "dry",
      "duration": 3,
      "rating": 4.0,
      "activities": [
        "swimming",
        "fishing",
        "relaxation"
      ]
    },
    {
      "name": "Kalmunai Beach",
      "lat": 7.4167,
      "lng": 81.8167,
      "province": "Eastern",
      "city": "Kalmunai",
      "type": "beach",
      "budget": 2500,
      "season": "dry",
      "duration": 4,
      "rating": 3.9,
      "activities": [
        "swimming",
        "cultural",
        "fishing"
      ]
    },
    {
      "name": "Sammanthurai Beach",
      "lat": 7.3333,
      "lng": 81.8333,
      "province": "Eastern",
      "city": "Sammanthurai",
      "type": "beach",
      "budget": 2200,
      "season": "dry",
      "duration": 4,
      "rating": 3.8,
      "activities": [
        "swimming",
        "local_culture",
        "fishing"
      ]
    },
    {
      "name": "Akkaraipattu Beach",
      "lat": 7.2167,
      "lng": 81.85,
      "province": "Eastern",
      "city": "Akkaraipattu",
      "type": "beach",
      "budget": 2000,
      "season": "dry",
      "duration": 3,
      "rating": 3.9,
      "activities": [
        "swimming",
        "cultural",
        "relaxation"
      ]
    },
    {
      "name": "Nintavur Beach",
      "lat": 7.1333,
      "lng": 81.8667,
      "province": "Eastern",
      "city": "Nintavur",
      "type": "beach",
      "budget": 1800,
      "season": "dry",
      "duration": 3,
      "rating": 3.8,
      "activities": [
        "swimming",
        "fishing",
        "local_culture"
      ]
    },
    {
      "name": "Ampara Market",
      "lat": 7.2917,
      "lng": 81.675,
      "province": "Eastern",
      "city": "Ampara",
      "type": "cultural",
      "budget": 800,
      "season": "all",
      "duration": 2,
      "rating": 3.9,
      "activities": [
        "shopping",
        "local_culture",
        "food"
      ]
    },
    {
      "name": "Digavapi Raja Maha Vihara",
      "lat": 7.1,
      "lng": 81.75,
      "province": "Eastern",
      "city": "Digavapi",
      "type": "religious",
      "budget": 1000,
      "season": "all",
      "duration": 3,
      "rating": 4.2,
      "activities": [
        "pilgrimage",
        "archaeology",
        "history"
      ]
    },
    {
      "name": "Buduruwagala Temple",
      "lat": 6.75,
      "lng": 81.05,
      "province": "Eastern",
      "city": "Monaragala",
      "type": "historical",
      "budget": 1500,
      "season": "all",
      "duration": 3,
      "rating": 4.3,
      "activities": [
        "rock_carvings",
        "archaeology",
        "buddhist_art"
      ]
    },
    {
      "name": "Maduru Oya National Park",
      "lat": 7.5833,
      "lng": 81.0833,
      "province": "Eastern",
      "city": "Maduru Oya",
      "type": "wildlife",
      "budget": 4500,
      "season": "dry",
      "duration": 6,
      "rating": 4.2,
      "activities": [
        "elephant_watching",
        "safari",
        "ancient_ruins"
      ]
    },
    {
      "name": "Arugam Bay Main Point",
      "lat": 6.84,
      "lng": 81.835,
      "province": "Eastern",
      "city": "Arugam Bay",
      "type": "beach",
      "budget": 3200,
      "season": "dry",
      "duration": 6,
      "rating": 4.5,
      "activities": [
        "surfing",
        "beach_culture",
        "nightlife"
      ]
    },
    {
      "name": "Baby Point",
      "lat": 6.835,
      "lng": 81.838,
      "province": "Eastern",
      "city": "Arugam Bay",
      "type": "beach",
      "budget": 2800,
      "season": "dry",
      "duration": 4,
      "rating": 4.3,
      "activities": [
        "surfing",
        "beginner_friendly",
        "swimming"
      ]
    },
    {
      "name": "Coconut Tree Hill Arugam",
      "lat": 6.845,
      "lng": 81.83,
      "province": "Eastern",
      "city": "Arugam Bay",
      "type": "scenic",
      "budget": 800,
      "season": "all",
      "duration": 2,
      "rating": 4.4,
      "activities": [
        "photography",
        "sunset",
        "panoramic_view"
      ]
    },
    {
      "name": "Singing Fish Batticaloa",
      "lat": 7.7102,
      "lng": 81.6924,
      "province": "Eastern",
      "city": "Batticaloa",
      "type": "cultural",
      "budget": 1000,
      "season": "all",
      "duration": 2,
      "rating": 4.0,
      "activities": [
        "unique_experience",
        "cultural",
        "night_tour"
      ]
    },
    {
      "name": "Kallady Beach",
      "lat": 7.72,
      "lng": 81.7,
      "province": "Eastern",
      "city": "Batticaloa",
      "type": "beach",
      "budget": 2000,
      "season": "dry",
      "duration": 4,
      "rating": 4.0,
      "activities": [
        "swimming",
        "bridge_view",
        "sunset"
      ]
    },
    {
      "name": "Navalady Beach",
      "lat": 7.75,
      "lng": 81.72,
      "province": "Eastern",
      "city": "Batticaloa",
      "type": "beach",
      "budget": 1800,
      "season": "dry",
      "duration": 3,
      "rating": 3.9,
      "activities": [
        "swimming",
        "local_culture",
        "fishing"
      ]
    },
    {
      "name": "Batticaloa Lighthouse",
      "lat": 7.7102,
      "lng": 81.6924,
      "province": "Eastern",
      "city": "Batticaloa",
      "type": "historical",
      "budget": 600,
      "season": "all",
      "duration": 1,
      "rating": 4.1,
      "activities": [
        "photography",
        "history",
        "harbor_view"
      ]
    },
    {
      "name": "St. Mary's Cathedral Batticaloa",
      "lat": 7.7102,
      "lng": 81.6924,
      "province": "Eastern",
      "city": "Batticaloa",
      "type": "religious",
      "budget": 400,
      "season": "all",
      "duration": 1,
      "rating": 4.0,
      "activities": [
        "worship",
        "architecture",
        "cultural"
      ]
    },
    {
      "name": "Hindu College Batticaloa",
      "lat": 7.7102,
      "lng": 81.6924,
      "province": "Eastern",
      "city": "Batticaloa",
      "type": "cultural",
      "budget": 500,
      "season": "all",
      "duration": 2,
      "rating": 3.8,
      "activities": [
        "education",
        "architecture",
        "cultural"
      ]
    },
    {
      "name": "Vakarai Beach",
      "lat": 8.1333,
      "lng": 81.4333,
      "province": "Eastern",
      "city": "Vakarai",
      "type": "beach",
      "budget": 2200,
      "season": "dry",
      "duration": 4,
      "rating": 4.0,
      "activities": [
        "swimming",
        "fishing",
        "peaceful"
      ]
    },
    {
      "name": "Trincomalee Harbor View",
      "lat": 8.5874,
      "lng": 81.2152,
      "province": "Eastern",
      "city": "Trincomalee",
      "type": "scenic",
      "budget": 1000,
      "season": "all",
      "duration": 2,
      "rating": 4.2,
      "activities": [
        "harbor_view",
        "photography",
        "naval_history"
      ]
    },
    {
      "name": "Valaichchenai Beach",
      "lat": 7.9167,
      "lng": 81.5833,
      "province": "Eastern",
      "city": "Valaichchenai",
      "type": "beach",
      "budget": 2000,
      "season": "dry",
      "duration": 3,
      "rating": 3.9,
      "activities": [
        "swimming",
        "local_culture",
        "fishing"
      ]
    },
    {
      "name": "Chenkaladi Temple",
      "lat": 7.8,
      "lng": 81.6,
      "province": "Eastern",
      "city": "Chenkaladi",
      "type": "religious",
      "budget": 600,
      "season": "all",
      "duration": 2,
      "rating": 4.1,
      "activities": [
        "worship",
        "hindu_culture",
        "architecture"
      ]
    },
    {
      "name": "Dimbulagala Forest Monastery",
      "lat": 8.0,
      "lng": 80.9,
      "province": "Eastern",
      "city": "Polonnaruwa",
      "type": "religious",
      "budget": 1800,
      "season": "all",
      "duration": 4,
      "rating": 4.4,
      "activities": [
        "meditation",
        "forest_monastery",
        "climbing"
      ]
    },
    {
      "name": "Rugam Lagoon",
      "lat": 6.85,
      "lng": 81.81,
      "province": "Eastern",
      "city": "Arugam Bay",
      "type": "nature",
      "budget": 1800,
      "season": "all",
      "duration": 3,
      "rating": 4.2,
      "activities": [
        "bird_watching",
        "boat_safari",
        "crocodile_spotting"
      ]
    },
    {
      "name": "Siyambalanduwa",
      "lat": 6.8,
      "lng": 81.5,
      "province": "Eastern",
      "city": "Siyambalanduwa",
      "type": "cultural",
      "budget": 1000,
      "season": "all",
      "duration": 2,
      "rating": 3.9,
      "activities": [
        "rural_life",
        "agriculture",
        "local_culture"
      ]
    },
    {
      "name": "Thoppigala (Baron's Cap)",
      "lat": 7.935,
      "lng": 81.383,
      "province": "Eastern",
      "city": "Batticaloa",
      "type": "historical",
      "budget": 2500,
      "season": "all",
      "duration": 4,
      "rating": 4.2,
      "activities": [
        "hiking",
        "history",
        "photography"
      ]
    },
    {
      "name": "Salli Beach",
      "lat": 8.6167,
      "lng": 81.2,
      "province": "Eastern",
      "city": "Trincomalee",
      "type": "beach",
      "budget": 2500,
      "season": "dry",
      "duration": 4,
      "rating": 4.1,
      "activities": [
        "swimming",
        "snorkeling",
        "relaxation"
      ]
    },
    {
      "name": "Soodaikudah Beach",
      "lat": 8.6333,
      "lng": 81.2,
      "province": "Eastern",
      "city": "Trincomalee",
      "type": "beach",
      "budget": 2300,
      "season": "dry",
      "duration": 3,
      "rating": 4.0,
      "activities": [
        "swimming",
        "fishing",
        "local_culture"
      ]
    },
    {
      "name": "Verugal Aru Estuary",
      "lat": 7.85,
      "lng": 81.45,
      "province": "Eastern",
      "city": "Verugal",
      "type": "nature",
      "budget": 2000,
      "season": "all",
      "duration": 3,
      "rating": 4.2,
      "activities": [
        "bird_watching",
        "boat_rides",
        "photography"
      ]
    },
    {
      "name": "Uppuveli Beach",
      "lat": 8.605,
      "lng": 81.211,
      "province": "Eastern",
      "city": "Trincomalee",
      "type": "beach",
      "budget": 2800,
      "season": "dry",
      "duration": 4,
      "rating": 4.4,
      "activities": [
        "swimming",
        "snorkeling",
        "relaxation"
      ]
    },
    {
      "name": "Kinniya Hot Springs",
      "lat": 8.573,
      "lng": 81.197,
      "province": "Eastern",
      "city": "Kinniya",
      "type": "nature",
      "budget": 800,
      "season": "all",
      "duration": 2,
      "rating": 4.1,
      "activities": [
        "hot_springs",
        "cultural",
        "photography"
      ]
    },
    {
      "name": "Marble Beach",
      "lat": 8.55,
      "lng": 81.233,
      "province": "Eastern",
      "city": "Trincomalee",
      "type": "beach",
      "budget": 3000,
      "season": "dry",
      "duration": 5,
      "rating": 4.5,
      "activities": [
        "swimming",
        "sunbathing",
        "picnics"
      ]
    },
    {
      "name": "Sampur Lighthouse",
      "lat": 8.4667,
      "lng": 81.25,
      "province": "Eastern",
      "city": "Sampur",
      "type": "historical",
      "budget": 1200,
      "season": "all",
      "duration": 2,
      "rating": 4.0,
      "activities": [
        "photography",
        "lighthouse_view",
        "history"
      ]
    },
    {
      "name": "Nilaveli Beach",
      "lat": 8.674,
      "lng": 81.183,
      "province": "Eastern",
      "city": "Nilaveli",
      "type": "beach",
      "budget": 3200,
      "season": "dry",
      "duration": 5,
      "rating": 4.5,
      "activities": [
        "swimming",
        "snorkeling",
        "relaxation"
      ]
    },
    {
      "name": "Pigeon Island National Park",
      "lat": 8.7167,
      "lng": 81.2,
      "province": "Eastern",
      "city": "Nilaveli",
      "type": "wildlife",
      "budget": 4500,
      "season": "dry",
      "duration": 5,
      "rating": 4.6,
      "activities": [
        "snorkeling",
        "marine_life",
        "boat_rides"
      ]
    },
    {
      "name": "Nilaveli Lagoon Cove",
      "lat": 8.678,
      "lng": 81.18,
      "province": "Eastern",
      "city": "Nilaveli",
      "type": "beach",
      "budget": 2800,
      "season": "dry",
      "duration": 3,
      "rating": 4.3,
      "activities": [
        "snorkeling",
        "kayaking",
        "wildlife"
      ]
    },
    {
      "name": "Kalametiya Cove",
      "lat": 6.824,
      "lng": 81.877,
      "province": "Eastern",
      "city": "Arugam Bay",
      "type": "beach",
      "budget": 1500,
      "season": "dry",
      "duration": 3,
      "rating": 4.0,
      "activities": [
        "bird_watching",
        "fishing",
        "relaxation"
      ]
    },
    {
      "name": "Pigeon Island Hidden Bay",
      "lat": 8.716,
      "lng": 81.202,
      "province": "Eastern",
      "city": "Nilaveli",
      "type": "beach",
      "budget": 3500,
      "season": "dry",
      "duration": 4,
      "rating": 4.7,
      "activities": [
        "snorkeling",
        "diving",
        "marine_life"
      ]
    },
    {
      "name": "Mandur Cove",
      "lat": 6.66,
      "lng": 81.875,
      "province": "Eastern",
      "city": "Mandur",
      "type": "beach",
      "budget": 1700,
      "season": "dry",
      "duration": 3,
      "rating": 3.9,
      "activities": [
        "swimming",
        "fishing",
        "secluded"
      ]
    },
    {
      "name": "Panama Hidden Beach",
      "lat": 6.755,
      "lng": 81.868,
      "province": "Eastern",
      "city": "Panama",
      "type": "beach",
      "budget": 2000,
      "season": "dry",
      "duration": 3,
      "rating": 4.1,
      "activities": [
        "relaxation",
        "sunbathing",
        "photography"
      ]
    },
    {
      "name": "Sungape Lagoon Cove",
      "lat": 6.84,
      "lng": 81.84,
      "province": "Eastern",
      "city": "Arugam Bay",
      "type": "nature",
      "budget": 1800,
      "season": "all",
      "duration": 3,
      "rating": 4.2,
      "activities": [
        "bird_watching",
        "kayaking",
        "wildlife"
      ]
    },
    {
      "name": "Okanda Hidden Bay",
      "lat": 6.7,
      "lng": 81.88,
      "province": "Eastern",
      "city": "Okanda",
      "type": "beach",
      "budget": 1000,
      "season": "all",
      "duration": 3,
      "rating": 4.3,
      "activities": [
        "pilgrimage",
        "secluded",
        "surfing"
      ]
    },
    {
      "name": "Valaichchenai Secluded Beach",
      "lat": 7.92,
      "lng": 81.58,
      "province": "Eastern",
      "city": "Valaichchenai",
      "type": "beach",
      "budget": 2000,
      "season": "dry",
      "duration": 3,
      "rating": 3.9,
      "activities": [
        "swimming",
        "fishing",
        "peaceful"
      ]
    },
    {
      "name": "Kallady Hidden Cove",
      "lat": 7.715,
      "lng": 81.7,
      "province": "Eastern",
      "city": "Batticaloa",
      "type": "beach",
      "budget": 1800,
      "season": "dry",
      "duration": 3,
      "rating": 4.0,
      "activities": [
        "swimming",
        "relaxation",
        "local_culture"
      ]
    },
    {
      "name": "Pottuvil Lagoon Hidden Spot",
      "lat": 6.87,
      "lng": 81.825,
      "province": "Eastern",
      "city": "Pottuvil",
      "type": "nature",
      "budget": 2200,
      "season": "all",
      "duration": 3,
      "rating": 4.2,
      "activities": [
        "boat_safari",
        "bird_watching",
        "crocodile_spotting"
      ]
    },
    {
      "name": "Jaffna Fort",
      "lat": 9.6615,
      "lng": 80.0255,
      "province": "Northern",
      "city": "Jaffna",
      "type": "historical",
      "budget": 2000,
      "season": "all",
      "duration": 4,
      "rating": 4.1,
      "activities": [
        "history",
        "photography",
        "cultural"
      ]
    },
    {
      "name": "Nallur Kandaswamy Temple",
      "lat": 9.675,
      "lng": 80.009,
      "province": "Northern",
      "city": "Jaffna",
      "type": "religious",
      "budget": 800,
      "season": "all",
      "duration": 2,
      "rating": 4.4,
      "activities": [
        "worship",
        "festival",
        "cultural"
      ]
    },
    {
      "name": "Casuarina Beach",
      "lat": 9.6884,
      "lng": 80.2519,
      "province": "Northern",
      "city": "Karainagar",
      "type": "beach",
      "budget": 2200,
      "season": "dry",
      "duration": 4,
      "rating": 4.0,
      "activities": [
        "swimming",
        "relaxation",
        "photography"
      ]
    },
    {
      "name": "Nagadeepa Temple",
      "lat": 9.5736,
      "lng": 79.7603,
      "province": "Northern",
      "city": "Nagadeepa",
      "type": "religious",
      "budget": 1200,
      "season": "all",
      "duration": 3,
      "rating": 4.3,
      "activities": [
        "worship",
        "boat_ride",
        "pilgrimage"
      ]
    },
    {
      "name": "Keerimalai Hot Springs",
      "lat": 9.75,
      "lng": 80.2,
      "province": "Northern",
      "city": "Keerimalai",
      "type": "nature",
      "budget": 1000,
      "season": "all",
      "duration": 2,
      "rating": 4.0,
      "activities": [
        "bathing",
        "relaxation",
        "therapy"
      ]
    },
    {
      "name": "Delft Island",
      "lat": 9.5167,
      "lng": 79.7,
      "province": "Northern",
      "city": "Delft",
      "type": "adventure",
      "budget": 3000,
      "season": "dry",
      "duration": 6,
      "rating": 4.2,
      "activities": [
        "boat_ride",
        "cycling",
        "exploration"
      ]
    },
    {
      "name": "Point Pedro Lighthouse",
      "lat": 9.8167,
      "lng": 80.2333,
      "province": "Northern",
      "city": "Point Pedro",
      "type": "scenic",
      "budget": 800,
      "season": "all",
      "duration": 2,
      "rating": 4.0,
      "activities": [
        "photography",
        "sightseeing",
        "coastal_walk"
      ]
    },
    {
      "name": "Jaffna Public Library",
      "lat": 9.6615,
      "lng": 80.0255,
      "province": "Northern",
      "city": "Jaffna",
      "type": "cultural",
      "budget": 300,
      "season": "all",
      "duration": 1,
      "rating": 4.1,
      "activities": [
        "learning",
        "history",
        "architecture"
      ]
    },
    {
      "name": "Dambakolapatuna Temple",
      "lat": 9.7,
      "lng": 80.15,
      "province": "Northern",
      "city": "Jaffna",
      "type": "religious",
      "budget": 600,
      "season": "all",
      "duration": 2,
      "rating": 4.2,
      "activities": [
        "pilgrimage",
        "buddhist_history",
        "archaeology"
      ]
    },
    {
      "name": "Kantharodai Stupas",
      "lat": 9.6,
      "lng": 80.05,
      "province": "Northern",
      "city": "Chunnakam",
      "type": "historical",
      "budget": 1000,
      "season": "all",
      "duration": 3,
      "rating": 4.3,
      "activities": [
        "archaeology",
        "ancient_stupas",
        "photography"
      ]
    },
    {
      "name": "Manalkadu Desert",
      "lat": 9.1,
      "lng": 80.1,
      "province": "Northern",
      "city": "Mannar",
      "type": "nature",
      "budget": 2500,
      "season": "all",
      "duration": 5,
      "rating": 4.4,
      "activities": [
        "desert_safari",
        "photography",
        "adventure"
      ]
    },
    {
      "name": "Adam's Bridge",
      "lat": 9.1667,
      "lng": 79.8333,
      "province": "Northern",
      "city": "Mannar",
      "type": "scenic",
      "budget": 1800,
      "season": "all",
      "duration": 4,
      "rating": 4.5,
      "activities": [
        "mythology",
        "photography",
        "boat_ride"
      ]
    },
    {
      "name": "Mannar Fort",
      "lat": 8.9811,
      "lng": 79.9042,
      "province": "Northern",
      "city": "Mannar",
      "type": "historical",
      "budget": 1200,
      "season": "all",
      "duration": 3,
      "rating": 4.0,
      "activities": [
        "history",
        "portuguese_architecture",
        "photography"
      ]
    },
    {
      "name": "Thiruketheeswaram Temple",
      "lat": 8.95,
      "lng": 79.9,
      "province": "Northern",
      "city": "Mannar",
      "type": "religious",
      "budget": 800,
      "season": "all",
      "duration": 2,
      "rating": 4.3,
      "activities": [
        "worship",
        "ancient_temple",
        "pilgrimage"
      ]
    },
    {
      "name": "Mannar Island",
      "lat": 8.9811,
      "lng": 79.9042,
      "province": "Northern",
      "city": "Mannar",
      "type": "adventure",
      "budget": 3500,
      "season": "dry",
      "duration": 7,
      "rating": 4.2,
      "activities": [
        "island_exploration",
        "bird_watching",
        "cycling"
      ]
    },
    {
      "name": "Baobab Tree Mannar",
      "lat": 8.95,
      "lng": 79.92,
      "province": "Northern",
      "city": "Mannar",
      "type": "nature",
      "budget": 500,
      "season": "all",
      "duration": 1,
      "rating": 4.1,
      "activities": [
        "photography",
        "unique_tree",
        "nature"
      ]
    },
    {
      "name": "Talaimannar Pier",
      "lat": 9.1167,
      "lng": 79.7667,
      "province": "Northern",
      "city": "Talaimannar",
      "type": "historical",
      "budget": 1000,
      "season": "all",
      "duration": 2,
      "rating": 3.9,
      "activities": [
        "history",
        "railway_heritage",
        "photography"
      ]
    },
    {
      "name": "Aripu Lagoon",
      "lat": 8.9,
      "lng": 79.85,
      "province": "Northern",
      "city": "Mannar",
      "type": "nature",
      "budget": 2000,
      "season": "all",
      "duration": 4,
      "rating": 4.2,
      "activities": [
        "bird_watching",
        "flamingo_spotting",
        "boat_safari"
      ]
    },
    {
      "name": "Vankalai Bird Sanctuary",
      "lat": 8.8,
      "lng": 79.9,
      "province": "Northern",
      "city": "Mannar",
      "type": "wildlife",
      "budget": 2500,
      "season": "all",
      "duration": 5,
      "rating": 4.3,
      "activities": [
        "bird_watching",
        "photography",
        "sanctuary_tour"
      ]
    },
    {
      "name": "Jaffna Market",
      "lat": 9.6615,
      "lng": 80.0255,
      "province": "Northern",
      "city": "Jaffna",
      "type": "cultural",
      "budget": 800,
      "season": "all",
      "duration": 2,
      "rating": 4.0,
      "activities": [
        "shopping",
        "local_culture",
        "food"
      ]
    },
    {
      "name": "Palmyra House",
      "lat": 9.6615,
      "lng": 80.0255,
      "province": "Northern",
      "city": "Jaffna",
      "type": "cultural",
      "budget": 1200,
      "season": "all",
      "duration": 3,
      "rating": 4.1,
      "activities": [
        "heritage_hotel",
        "architecture",
        "dining"
      ]
    },
    {
      "name": "Jaffna Archaeological Museum",
      "lat": 9.6615,
      "lng": 80.0255,
      "province": "Northern",
      "city": "Jaffna",
      "type": "cultural",
      "budget": 600,
      "season": "all",
      "duration": 2,
      "rating": 4.0,
      "activities": [
        "archaeology",
        "artifacts",
        "history"
      ]
    },
    {
      "name": "University of Jaffna",
      "lat": 9.6,
      "lng": 80.0,
      "province": "Northern",
      "city": "Jaffna",
      "type": "cultural",
      "budget": 400,
      "season": "all",
      "duration": 2,
      "rating": 3.9,
      "activities": [
        "education",
        "campus_tour",
        "architecture"
      ]
    },
    {
      "name": "Sangupiddy Bridge",
      "lat": 9.4,
      "lng": 80.1,
      "province": "Northern",
      "city": "Jaffna",
      "type": "scenic",
      "budget": 500,
      "season": "all",
      "duration": 1,
      "rating": 4.0,
      "activities": [
        "photography",
        "lagoon_view",
        "engineering"
      ]
    },
    {
      "name": "Chundikulam National Park",
      "lat": 9.0,
      "lng": 80.5,
      "province": "Northern",
      "city": "Pooneryn",
      "type": "wildlife",
      "budget": 3000,
      "season": "dry",
      "duration": 5,
      "rating": 4.1,
      "activities": [
        "bird_watching",
        "elephant_watching",
        "safari"
      ]
    },
    {
      "name": "Neduntheevu Island",
      "lat": 9.55,
      "lng": 79.75,
      "province": "Northern",
      "city": "Neduntheevu",
      "type": "adventure",
      "budget": 2800,
      "season": "dry",
      "duration": 6,
      "rating": 4.0,
      "activities": [
        "island_hopping",
        "boat_ride",
        "fishing"
      ]
    },
    {
      "name": "Kayts Island",
      "lat": 9.65,
      "lng": 79.85,
      "province": "Northern",
      "city": "Kayts",
      "type": "adventure",
      "budget": 2500,
      "season": "dry",
      "duration": 5,
      "rating": 4.0,
      "activities": [
        "island_exploration",
        "causeway_drive",
        "fishing"
      ]
    },
    {
      "name": "Kurikadduwan Beach",
      "lat": 9.7,
      "lng": 80.25,
      "province": "Northern",
      "city": "Kurikadduwan",
      "type": "beach",
      "budget": 1800,
      "season": "dry",
      "duration": 3,
      "rating": 3.9,
      "activities": [
        "swimming",
        "beach_walk",
        "peaceful"
      ]
    },
    {
      "name": "Mahakandara Beach",
      "lat": 9.72,
      "lng": 80.27,
      "province": "Northern",
      "city": "Jaffna",
      "type": "beach",
      "budget": 2000,
      "season": "dry",
      "duration": 4,
      "rating": 4.0,
      "activities": [
        "swimming",
        "sunset",
        "photography"
      ]
    },
    {
      "name": "Kankesanthurai Beach",
      "lat": 9.8,
      "lng": 80.05,
      "province": "Northern",
      "city": "Kankesanthurai",
      "type": "beach",
      "budget": 1600,
      "season": "dry",
      "duration": 3,
      "rating": 3.8,
      "activities": [
        "swimming",
        "harbour_view",
        "fishing"
      ]
    },
    {
      "name": "Valvettithurai Beach",
      "lat": 9.8167,
      "lng": 80.1667,
      "province": "Northern",
      "city": "Valvettithurai",
      "type": "beach",
      "budget": 1500,
      "season": "dry",
      "duration": 3,
      "rating": 3.8,
      "activities": [
        "swimming",
        "local_culture",
        "fishing"
      ]
    },
    {
      "name": "Elephant Pass",
      "lat": 9.3167,
      "lng": 80.1667,
      "province": "Northern",
      "city": "Elephant Pass",
      "type": "historical",
      "budget": 1000,
      "season": "all",
      "duration": 2,
      "rating": 3.9,
      "activities": [
        "history",
        "war_memorial",
        "strategic_location"
      ]
    },
    {
      "name": "Kilinochchi War Memorial",
      "lat": 9.3833,
      "lng": 80.4,
      "province": "Northern",
      "city": "Kilinochchi",
      "type": "historical",
      "budget": 800,
      "season": "all",
      "duration": 2,
      "rating": 3.8,
      "activities": [
        "war_history",
        "memorial",
        "reflection"
      ]
    },
    {
      "name": "Paranthan Tank",
      "lat": 9.4,
      "lng": 80.35,
      "province": "Northern",
      "city": "Paranthan",
      "type": "nature",
      "budget": 1200,
      "season": "all",
      "duration": 3,
      "rating": 4.0,
      "activities": [
        "bird_watching",
        "fishing",
        "boat_rides"
      ]
    },
    {
      "name": "Mullaitivu Beach",
      "lat": 9.2667,
      "lng": 80.8167,
      "province": "Northern",
      "city": "Mullaitivu",
      "type": "beach",
      "budget": 2200,
      "season": "dry",
      "duration": 4,
      "rating": 4.1,
      "activities": [
        "swimming",
        "pristine_beach",
        "turtle_watching"
      ]
    },
    {
      "name": "Nanthi Kadal Lagoon",
      "lat": 9.25,
      "lng": 80.75,
      "province": "Northern",
      "city": "Mullaitivu",
      "type": "nature",
      "budget": 1800,
      "season": "all",
      "duration": 4,
      "rating": 4.2,
      "activities": [
        "boat_safari",
        "bird_watching",
        "fishing"
      ]
    },
    {
      "name": "Kokkilai Lagoon",
      "lat": 8.95,
      "lng": 80.7,
      "province": "Northern",
      "city": "Mullaitivu",
      "type": "nature",
      "budget": 2000,
      "season": "all",
      "duration": 4,
      "rating": 4.2,
      "activities": [
        "bird_sanctuary",
        "boat_rides",
        "photography"
      ]
    },
    {
      "name": "Vavuniya Tank",
      "lat": 8.75,
      "lng": 80.5,
      "province": "Northern",
      "city": "Vavuniya",
      "type": "nature",
      "budget": 1000,
      "season": "all",
      "duration": 3,
      "rating": 3.9,
      "activities": [
        "bird_watching",
        "fishing",
        "peaceful"
      ]
    },
    {
      "name": "Vavuniya Archaeological Museum",
      "lat": 8.75,
      "lng": 80.5,
      "province": "Northern",
      "city": "Vavuniya",
      "type": "cultural",
      "budget": 500,
      "season": "all",
      "duration": 2,
      "rating": 3.8,
      "activities": [
        "archaeology",
        "artifacts",
        "education"
      ]
    },
    {
      "name": "Madhu Church",
      "lat": 8.7,
      "lng": 80.15,
      "province": "Northern",
      "city": "Mannar",
      "type": "religious",
      "budget": 800,
      "season": "all",
      "duration": 2,
      "rating": 4.2,
      "activities": [
        "pilgrimage",
        "christian_heritage",
        "architecture"
      ]
    },
    {
      "name": "Giant's Tank",
      "lat": 8.6,
      "lng": 80.4,
      "province": "Northern",
      "city": "Mannar",
      "type": "historical",
      "budget": 1500,
      "season": "all",
      "duration": 3,
      "rating": 4.1,
      "activities": [
        "ancient_irrigation",
        "engineering",
        "bird_watching"
      ]
    },
    {
      "name": "Kondavil Beach",
      "lat": 9.75,
      "lng": 80.22,
      "province": "Northern",
      "city": "Jaffna",
      "type": "beach",
      "budget": 1400,
      "season": "dry",
      "duration": 3,
      "rating": 3.9,
      "activities": [
        "swimming",
        "local_beach",
        "fishing"
      ]
    },
    {
      "name": "Thondamanaru Lagoon",
      "lat": 9.6,
      "lng": 80.15,
      "province": "Northern",
      "city": "Jaffna",
      "type": "nature",
      "budget": 1200,
      "season": "all",
      "duration": 3,
      "rating": 4.0,
      "activities": [
        "boat_rides",
        "bird_watching",
        "peaceful"
      ]
    },
    {
      "name": "Hammenhiel Fort",
      "lat": 9.6,
      "lng": 79.85,
      "province": "Northern",
      "city": "Kayts",
      "type": "historical",
      "budget": 1800,
      "season": "all",
      "duration": 4,
      "rating": 4.1,
      "activities": [
        "dutch_fort",
        "boat_access",
        "history"
      ]
    },
    {
      "name": "Analativu Island",
      "lat": 9.7,
      "lng": 79.7,
      "province": "Northern",
      "city": "Analativu",
      "type": "adventure",
      "budget": 3200,
      "season": "dry",
      "duration": 6,
      "rating": 4.0,
      "activities": [
        "island_hopping",
        "boat_ride",
        "exploration"
      ]
    },
    {
      "name": "Punkudutivu Island",
      "lat": 9.5,
      "lng": 79.85,
      "province": "Northern",
      "city": "Punkudutivu",
      "type": "adventure",
      "budget": 2800,
      "season": "dry",
      "duration": 5,
      "rating": 3.9,
      "activities": [
        "island_visit",
        "nagapooshani_temple",
        "boat_ride"
      ]
    },
    {
      "name": "Jaffna Clock Tower",
      "lat": 9.6615,
      "lng": 80.0255,
      "province": "Northern",
      "city": "Jaffna",
      "type": "historical",
      "budget": 200,
      "season": "all",
      "duration": 1,
      "rating": 3.8,
      "activities": [
        "photography",
        "landmark",
        "city_center"
      ]
    },
    {
      "name": "Rio Ice Cream Jaffna",
      "lat": 9.6615,
      "lng": 80.0255,
      "province": "Northern",
      "city": "Jaffna",
      "type": "cultural",
      "budget": 400,
      "season": "all",
      "duration": 1,
      "rating": 4.0,
      "activities": [
        "food",
        "local_delicacy",
        "cultural"
      ]
    },
    {
      "name": "Nainativu Island",
      "lat": 9.4,
      "lng": 79.8333,
      "province": "Northern",
      "city": "Nainativu",
      "type": "religious",
      "budget": 1500,
      "season": "dry",
      "duration": 3,
      "rating": 4.2,
      "activities": [
        "worship",
        "boat_ride",
        "cultural_exploration"
      ]
    },
    {
      "name": "Keerimalai Beach",
      "lat": 9.75,
      "lng": 80.2,
      "province": "Northern",
      "city": "Keerimalai",
      "type": "beach",
      "budget": 800,
      "season": "all",
      "duration": 2,
      "rating": 4.0,
      "activities": [
        "swimming",
        "relaxation",
        "bathing"
      ]
    },
    {
      "name": "Navatkuli Lagoon",
      "lat": 9.6833,
      "lng": 80.0167,
      "province": "Northern",
      "city": "Jaffna",
      "type": "nature",
      "budget": 600,
      "season": "all",
      "duration": 3,
      "rating": 4.1,
      "activities": [
        "boat_ride",
        "bird_watching",
        "fishing"
      ]
    },
    {
      "name": "Kantharmadam",
      "lat": 9.665,
      "lng": 80.025,
      "province": "Northern",
      "city": "Jaffna",
      "type": "cultural",
      "budget": 500,
      "season": "all",
      "duration": 2,
      "rating": 4.0,
      "activities": [
        "cultural_visits",
        "shopping"
      ]
    },
    {
      "name": "Vallipuram Temple Ruins",
      "lat": 9.72,
      "lng": 80.1,
      "province": "Northern",
      "city": "Vallipuram",
      "type": "historical",
      "budget": 400,
      "season": "all",
      "duration": 2,
      "rating": 4.1,
      "activities": [
        "archaeology",
        "history",
        "photography"
      ]
    },
    {
      "name": "Kayts Island Beaches",
      "lat": 9.65,
      "lng": 79.85,
      "province": "Northern",
      "city": "Kayts",
      "type": "beach",
      "budget": 1200,
      "season": "dry",
      "duration": 3,
      "rating": 3.9,
      "activities": [
        "fishing",
        "beach_walks",
        "boat_ride"
      ]
    },
    {
      "name": "Wilpattu National Park",
      "lat": 8.5167,
      "lng": 80.0167,
      "province": "North Western",
      "city": "Anuradhapura",
      "type": "wildlife",
      "budget": 6000,
      "season": "dry",
      "duration": 8,
      "rating": 4.5,
      "activities": [
        "safari",
        "photography",
        "wildlife"
      ]
    },
    {
      "name": "Kalpitiya Beach",
      "lat": 8.2322,
      "lng": 79.7658,
      "province": "North Western",
      "city": "Kalpitiya",
      "type": "beach",
      "budget": 3000,
      "season": "dry",
      "duration": 6,
      "rating": 4.2,
      "activities": [
        "kite_surfing",
        "dolphin_watching",
        "diving"
      ]
    },
    {
      "name": "Chilaw Munneswaram Temple",
      "lat": 7.5775,
      "lng": 79.7947,
      "province": "North Western",
      "city": "Chilaw",
      "type": "religious",
      "budget": 600,
      "season": "all",
      "duration": 2,
      "rating": 4.3,
      "activities": [
        "worship",
        "festival",
        "cultural"
      ]
    },
    {
      "name": "Puttalam Lagoon",
      "lat": 8.0333,
      "lng": 79.8333,
      "province": "North Western",
      "city": "Puttalam",
      "type": "nature",
      "budget": 1800,
      "season": "all",
      "duration": 4,
      "rating": 4.0,
      "activities": [
        "boat_rides",
        "fishing",
        "bird_watching"
      ]
    },
    {
      "name": "Kalpitiya Lagoon",
      "lat": 8.2322,
      "lng": 79.7658,
      "province": "North Western",
      "city": "Kalpitiya",
      "type": "nature",
      "budget": 2000,
      "season": "all",
      "duration": 4,
      "rating": 4.3,
      "activities": [
        "dolphin_watching",
        "boat_safari",
        "mangroves"
      ]
    },
    {
      "name": "Bar Reef Marine Sanctuary",
      "lat": 8.35,
      "lng": 79.7,
      "province": "North Western",
      "city": "Kalpitiya",
      "type": "nature",
      "budget": 4000,
      "season": "dry",
      "duration": 6,
      "rating": 4.4,
      "activities": [
        "snorkeling",
        "diving",
        "coral_reef"
      ]
    },
    {
      "name": "Alankuda Beach",
      "lat": 8.2,
      "lng": 79.75,
      "province": "North Western",
      "city": "Kalpitiya",
      "type": "beach",
      "budget": 2800,
      "season": "dry",
      "duration": 5,
      "rating": 4.1,
      "activities": [
        "kite_surfing",
        "swimming",
        "sunset"
      ]
    },
    {
      "name": "Kudawa Entry Point Wilpattu",
      "lat": 8.5,
      "lng": 80.0,
      "province": "North Western",
      "city": "Puttalam",
      "type": "wildlife",
      "budget": 5500,
      "season": "dry",
      "duration": 7,
      "rating": 4.4,
      "activities": [
        "safari",
        "leopard_spotting",
        "wildlife"
      ]
    },
    {
      "name": "Anawilundawa Wetland Sanctuary",
      "lat": 7.3,
      "lng": 79.9,
      "province": "North Western",
      "city": "Chilaw",
      "type": "wildlife",
      "budget": 2500,
      "season": "all",
      "duration": 4,
      "rating": 4.2,
      "activities": [
        "bird_watching",
        "boat_safari",
        "conservation"
      ]
    },
    {
      "name": "St. Anne's Church Thalawila",
      "lat": 8.2,
      "lng": 79.78,
      "province": "North Western",
      "city": "Thalawila",
      "type": "religious",
      "budget": 500,
      "season": "all",
      "duration": 2,
      "rating": 4.1,
      "activities": [
        "pilgrimage",
        "festival",
        "architecture"
      ]
    },
    {
      "name": "Dutch Canal Negombo",
      "lat": 7.2083,
      "lng": 79.8358,
      "province": "North Western",
      "city": "Negombo",
      "type": "cultural",
      "budget": 1200,
      "season": "all",
      "duration": 3,
      "rating": 4.0,
      "activities": [
        "boat_ride",
        "history",
        "scenic"
      ]
    },
    {
      "name": "Angunakolapelessa",
      "lat": 7.1,
      "lng": 79.9,
      "province": "North Western",
      "city": "Negombo",
      "type": "cultural",
      "budget": 1000,
      "season": "all",
      "duration": 2,
      "rating": 3.9,
      "activities": [
        "pottery",
        "handicrafts",
        "cultural"
      ]
    },
    {
      "name": "Kochchikade Church",
      "lat": 7.2083,
      "lng": 79.8358,
      "province": "North Western",
      "city": "Negombo",
      "type": "religious",
      "budget": 300,
      "season": "all",
      "duration": 1,
      "rating": 4.0,
      "activities": [
        "worship",
        "architecture",
        "history"
      ]
    },
    {
      "name": "Duwa Temple Negombo",
      "lat": 7.2,
      "lng": 79.84,
      "province": "North Western",
      "city": "Negombo",
      "type": "religious",
      "budget": 400,
      "season": "all",
      "duration": 1,
      "rating": 4.1,
      "activities": [
        "buddhist_temple",
        "island_temple",
        "boat_access"
      ]
    },
    {
      "name": "Mahawewa Tank",
      "lat": 7.4,
      "lng": 79.9,
      "province": "North Western",
      "city": "Chilaw",
      "type": "nature",
      "budget": 1000,
      "season": "all",
      "duration": 3,
      "rating": 4.0,
      "activities": [
        "bird_watching",
        "fishing",
        "peaceful"
      ]
    },
    {
      "name": "Chilaw Beach",
      "lat": 7.5775,
      "lng": 79.7947,
      "province": "North Western",
      "city": "Chilaw",
      "type": "beach",
      "budget": 2000,
      "season": "dry",
      "duration": 4,
      "rating": 3.9,
      "activities": [
        "swimming",
        "fishing",
        "local_beach"
      ]
    },
    {
      "name": "Marawila Beach",
      "lat": 7.45,
      "lng": 79.8,
      "province": "North Western",
      "city": "Marawila",
      "type": "beach",
      "budget": 2200,
      "season": "dry",
      "duration": 4,
      "rating": 4.0,
      "activities": [
        "swimming",
        "coconut_estates",
        "peaceful"
      ]
    },
    {
      "name": "Waikkal Beach",
      "lat": 7.3,
      "lng": 79.85,
      "province": "North Western",
      "city": "Waikkal",
      "type": "beach",
      "budget": 2800,
      "season": "dry",
      "duration": 5,
      "rating": 4.1,
      "activities": [
        "luxury_resorts",
        "water_sports",
        "relaxation"
      ]
    },
    {
      "name": "Dankotuwa Beach",
      "lat": 7.32,
      "lng": 79.87,
      "province": "North Western",
      "city": "Dankotuwa",
      "type": "beach",
      "budget": 1800,
      "season": "dry",
      "duration": 3,
      "rating": 3.8,
      "activities": [
        "swimming",
        "fishing",
        "quiet_beach"
      ]
    },
    {
      "name": "Madampe Lake",
      "lat": 7.25,
      "lng": 79.95,
      "province": "North Western",
      "city": "Madampe",
      "type": "nature",
      "budget": 1500,
      "season": "all",
      "duration": 3,
      "rating": 4.0,
      "activities": [
        "boat_rides",
        "bird_watching",
        "fishing"
      ]
    },
    {
      "name": "Udappuwa Beach",
      "lat": 7.7,
      "lng": 79.75,
      "province": "North Western",
      "city": "Udappuwa",
      "type": "beach",
      "budget": 1600,
      "season": "dry",
      "duration": 3,
      "rating": 3.9,
      "activities": [
        "swimming",
        "fishing_village",
        "local_culture"
      ]
    },
    {
      "name": "Mahakumbukkadawala",
      "lat": 7.8,
      "lng": 79.8,
      "province": "North Western",
      "city": "Puttalam",
      "type": "nature",
      "budget": 1200,
      "season": "all",
      "duration": 3,
      "rating": 3.8,
      "activities": [
        "salt_pans",
        "bird_watching",
        "unique_landscape"
      ]
    },
    {
      "name": "Kalpitiya Dutch Fort",
      "lat": 8.2322,
      "lng": 79.7658,
      "province": "North Western",
      "city": "Kalpitiya",
      "type": "historical",
      "budget": 800,
      "season": "all",
      "duration": 2,
      "rating": 4.0,
      "activities": [
        "history",
        "dutch_heritage",
        "photography"
      ]
    },
    {
      "name": "Vanathabhumi Marine Park",
      "lat": 8.1,
      "lng": 79.7,
      "province": "North Western",
      "city": "Kalpitiya",
      "type": "nature",
      "budget": 3500,
      "season": "dry",
      "duration": 5,
      "rating": 4.2,
      "activities": [
        "marine_life",
        "boat_safari",
        "conservation"
      ]
    },
    {
      "name": "Thalwila Beach",
      "lat": 8.18,
      "lng": 79.76,
      "province": "North Western",
      "city": "Kalpitiya",
      "type": "beach",
      "budget": 2500,
      "season": "dry",
      "duration": 4,
      "rating": 4.0,
      "activities": [
        "kite_surfing",
        "swimming",
        "wind_sports"
      ]
    },
    {
      "name": "Kappalady Lagoon",
      "lat": 8.15,
      "lng": 79.75,
      "province": "North Western",
      "city": "Kalpitiya",
      "type": "nature",
      "budget": 1800,
      "season": "all",
      "duration": 3,
      "rating": 4.1,
      "activities": [
        "boat_safari",
        "mangroves",
        "bird_watching"
      ]
    },
    {
      "name": "Puttalam Salt Pans",
      "lat": 8.0333,
      "lng": 79.8333,
      "province": "North Western",
      "city": "Puttalam",
      "type": "cultural",
      "budget": 1000,
      "season": "all",
      "duration": 2,
      "rating": 3.9,
      "activities": [
        "salt_production",
        "flamingo_watching",
        "unique_scenery"
      ]
    },
    {
      "name": "Anuradhapura Ancient City Border",
      "lat": 8.35,
      "lng": 80.4,
      "province": "North Western",
      "city": "Anuradhapura",
      "type": "historical",
      "budget": 1500,
      "season": "all",
      "duration": 3,
      "rating": 4.2,
      "activities": [
        "ancient_ruins",
        "archaeology",
        "pilgrimage"
      ]
    },
    {
      "name": "Eluwankulama Tank",
      "lat": 8.1,
      "lng": 80.1,
      "province": "North Western",
      "city": "Puttalam",
      "type": "nature",
      "budget": 1200,
      "season": "all",
      "duration": 3,
      "rating": 4.0,
      "activities": [
        "bird_watching",
        "fishing",
        "ancient_tank"
      ]
    },
    {
      "name": "Deduru Oya River",
      "lat": 7.6,
      "lng": 79.9,
      "province": "North Western",
      "city": "Kurunegala",
      "type": "nature",
      "budget": 1500,
      "season": "all",
      "duration": 3,
      "rating": 4.0,
      "activities": [
        "boat_rides",
        "river_safari",
        "bird_watching"
      ]
    },
    {
      "name": "Kurunegala Rock",
      "lat": 7.4833,
      "lng": 80.3667,
      "province": "North Western",
      "city": "Kurunegala",
      "type": "scenic",
      "budget": 800,
      "season": "all",
      "duration": 2,
      "rating": 4.1,
      "activities": [
        "climbing",
        "panoramic_view",
        "photography"
      ]
    },
    {
      "name": "Ridi Vihara Temple",
      "lat": 7.3167,
      "lng": 80.4833,
      "province": "North Western",
      "city": "Ridigama",
      "type": "religious",
      "budget": 600,
      "season": "all",
      "duration": 2,
      "rating": 4.3,
      "activities": [
        "ancient_temple",
        "silver_discovery",
        "archaeology"
      ]
    },
    {
      "name": "Arankele Monastery",
      "lat": 7.5167,
      "lng": 80.55,
      "province": "North Western",
      "city": "Arankele",
      "type": "historical",
      "budget": 1200,
      "season": "all",
      "duration": 3,
      "rating": 4.2,
      "activities": [
        "forest_monastery",
        "ruins",
        "meditation"
      ]
    },
    {
      "name": "Panduwasnuwara",
      "lat": 7.5,
      "lng": 80.1,
      "province": "North Western",
      "city": "Panduwasnuwara",
      "type": "historical",
      "budget": 1000,
      "season": "all",
      "duration": 3,
      "rating": 4.1,
      "activities": [
        "ancient_kingdom",
        "ruins",
        "archaeology"
      ]
    },
    {
      "name": "Yapahuwa Rock Fortress",
      "lat": 7.8167,
      "lng": 80.3167,
      "province": "North Western",
      "city": "Yapahuwa",
      "type": "historical",
      "budget": 1800,
      "season": "all",
      "duration": 4,
      "rating": 4.4,
      "activities": [
        "rock_fortress",
        "ancient_capital",
        "climbing"
      ]
    },
    {
      "name": "Dambadeniya",
      "lat": 7.5833,
      "lng": 80.15,
      "province": "North Western",
      "city": "Dambadeniya",
      "type": "historical",
      "budget": 1000,
      "season": "all",
      "duration": 3,
      "rating": 4.0,
      "activities": [
        "ancient_capital",
        "temple_ruins",
        "history"
      ]
    },
    {
      "name": "Athugala Rock",
      "lat": 7.4833,
      "lng": 80.3667,
      "province": "North Western",
      "city": "Kurunegala",
      "type": "scenic",
      "budget": 600,
      "season": "all",
      "duration": 2,
      "rating": 4.0,
      "activities": [
        "rock_formation",
        "legend",
        "photography"
      ]
    },
    {
      "name": "Coconut Research Institute",
      "lat": 7.4,
      "lng": 79.85,
      "province": "North Western",
      "city": "Lunuwila",
      "type": "educational",
      "budget": 800,
      "season": "all",
      "duration": 2,
      "rating": 3.9,
      "activities": [
        "research_center",
        "coconut_cultivation",
        "education"
      ]
    },
    {
      "name": "Wariyapola Sri Sumana Temple",
      "lat": 7.6833,
      "lng": 80.2,
      "province": "North Western",
      "city": "Wariyapola",
      "type": "religious",
      "budget": 500,
      "season": "all",
      "duration": 2,
      "rating": 4.1,
      "activities": [
        "ancient_temple",
        "tooth_relic",
        "pilgrimage"
      ]
    },
    {
      "name": "Kobeigane",
      "lat": 7.7,
      "lng": 80.1,
      "province": "North Western",
      "city": "Kobeigane",
      "type": "historical",
      "budget": 800,
      "season": "all",
      "duration": 2,
      "rating": 3.9,
      "activities": [
        "historical_site",
        "ancient_ruins",
        "archaeology"
      ]
    },
    {
      "name": "Melsiripura",
      "lat": 7.4,
      "lng": 80.4,
      "province": "North Western",
      "city": "Melsiripura",
      "type": "cultural",
      "budget": 600,
      "season": "all",
      "duration": 2,
      "rating": 3.8,
      "activities": [
        "rural_village",
        "traditional_life",
        "agriculture"
      ]
    },
    {
      "name": "Ethagala Rock",
      "lat": 7.5,
      "lng": 80.35,
      "province": "North Western",
      "city": "Kurunegala",
      "type": "scenic",
      "budget": 800,
      "season": "all",
      "duration": 2,
      "rating": 4.1,
      "activities": [
        "elephant_rock",
        "climbing",
        "legend"
      ]
    },
    {
      "name": "Ibbankatuwa Megalithic Tombs",
      "lat": 7.8,
      "lng": 80.6,
      "province": "North Western",
      "city": "Dambulla",
      "type": "historical",
      "budget": 1000,
      "season": "all",
      "duration": 3,
      "rating": 4.2,
      "activities": [
        "prehistoric_site",
        "archaeology",
        "ancient_burials"
      ]
    },
    {
      "name": "Ritigala Strict Nature Reserve",
      "lat": 8.15,
      "lng": 80.6,
      "province": "North Western",
      "city": "Ritigala",
      "type": "nature",
      "budget": 2500,
      "season": "all",
      "duration": 5,
      "rating": 4.3,
      "activities": [
        "hiking",
        "ancient_monastery",
        "biodiversity"
      ]
    },
    {
      "name": "Ritigala Forest Monastery",
      "lat": 8.16,
      "lng": 80.62,
      "province": "North Western",
      "city": "Ritigala",
      "type": "historical",
      "budget": 1500,
      "season": "all",
      "duration": 4,
      "rating": 4.4,
      "activities": [
        "monastery_ruins",
        "hiking",
        "nature"
      ]
    },
    {
      "name": "Angunukolapelessa Handicraft Village",
      "lat": 7.12,
      "lng": 79.91,
      "province": "North Western",
      "city": "Negombo",
      "type": "cultural",
      "budget": 700,
      "season": "all",
      "duration": 2,
      "rating": 3.8,
      "activities": [
        "handicrafts",
        "local_culture",
        "shopping"
      ]
    },
    {
      "name": "Anuradhapura Museum",
      "lat": 8.33,
      "lng": 80.4,
      "province": "North Western",
      "city": "Anuradhapura",
      "type": "educational",
      "budget": 500,
      "season": "all",
      "duration": 3,
      "rating": 4.2,
      "activities": [
        "museum",
        "history",
        "archaeology"
      ]
    },
    {
      "name": "Kalpitiya Lagoon Mangrove Trails",
      "lat": 8.23,
      "lng": 79.77,
      "province": "North Western",
      "city": "Kalpitiya",
      "type": "nature",
      "budget": 2000,
      "season": "all",
      "duration": 4,
      "rating": 4.3,
      "activities": [
        "mangrove_walks",
        "bird_watching",
        "boat_safari"
      ]
    },
    {
      "name": "Thabbowa Beach",
      "lat": 7.68,
      "lng": 79.82,
      "province": "North Western",
      "city": "Thabbowa",
      "type": "beach",
      "budget": 1800,
      "season": "dry",
      "duration": 3,
      "rating": 4.0,
      "activities": [
        "swimming",
        "sunbathing",
        "fishing"
      ]
    },
    {
      "name": "Ritigala Botanical Gardens",
      "lat": 8.14,
      "lng": 80.61,
      "province": "North Western",
      "city": "Ritigala",
      "type": "nature",
      "budget": 1000,
      "season": "all",
      "duration": 3,
      "rating": 4.1,
      "activities": [
        "botanical_walks",
        "wildlife",
        "photography"
      ]
    },
    {
      "name": "Wariyapola Heritage Site",
      "lat": 7.69,
      "lng": 80.2,
      "province": "North Western",
      "city": "Wariyapola",
      "type": "historical",
      "budget": 600,
      "season": "all",
      "duration": 2,
      "rating": 4.0,
      "activities": [
        "heritage",
        "architecture",
        "local_history"
      ]
    },
    {
      "name": "Madampe Coconut Plantations",
      "lat": 7.26,
      "lng": 79.95,
      "province": "North Western",
      "city": "Madampe",
      "type": "nature",
      "budget": 1200,
      "season": "all",
      "duration": 3,
      "rating": 3.9,
      "activities": [
        "plantation_tour",
        "agriculture",
        "local_culture"
      ]
    },
    {
      "name": "Puttalam Salt Flats Sunset Point",
      "lat": 8.03,
      "lng": 79.83,
      "province": "North Western",
      "city": "Puttalam",
      "type": "nature",
      "budget": 500,
      "season": "all",
      "duration": 2,
      "rating": 4.1,
      "activities": [
        "sunset_view",
        "photography",
        "salt_production"
      ]
    },
    {
      "name": "Kurunegala Clock Tower",
      "lat": 7.485,
      "lng": 80.36,
      "province": "North Western",
      "city": "Kurunegala",
      "type": "historical",
      "budget": 300,
      "season": "all",
      "duration": 1,
      "rating": 3.8,
      "activities": [
        "architecture",
        "photography",
        "local_landmark"
      ]
    },
    {
      "name": "Anuradhapura Ancient City",
      "lat": 8.3114,
      "lng": 80.4037,
      "province": "North Central",
      "city": "Anuradhapura",
      "type": "historical",
      "budget": 3000,
      "season": "all",
      "duration": 6,
      "rating": 4.6,
      "activities": [
        "archaeology",
        "cycling",
        "pilgrimage"
      ]
    },
    {
      "name": "Polonnaruwa Ancient City",
      "lat": 7.9403,
      "lng": 81.0188,
      "province": "North Central",
      "city": "Polonnaruwa",
      "type": "historical",
      "budget": 3500,
      "season": "all",
      "duration": 6,
      "rating": 4.7,
      "activities": [
        "archaeology",
        "cycling",
        "photography"
      ]
    },
    {
      "name": "Minneriya National Park",
      "lat": 8.0167,
      "lng": 80.8833,
      "province": "North Central",
      "city": "Minneriya",
      "type": "wildlife",
      "budget": 5500,
      "season": "dry",
      "duration": 7,
      "rating": 4.4,
      "activities": [
        "elephant_gathering",
        "safari",
        "photography"
      ]
    },
    {
      "name": "Ritigala Forest Monastery",
      "lat": 8.1333,
      "lng": 80.6167,
      "province": "North Central",
      "city": "Ritigala",
      "type": "historical",
      "budget": 2000,
      "season": "all",
      "duration": 4,
      "rating": 4.2,
      "activities": [
        "hiking",
        "meditation",
        "archaeology"
      ]
    },
    {
      "name": "Mihintale",
      "lat": 8.35,
      "lng": 80.5167,
      "province": "North Central",
      "city": "Mihintale",
      "type": "religious",
      "budget": 1800,
      "season": "all",
      "duration": 4,
      "rating": 4.5,
      "activities": [
        "pilgrimage",
        "climbing",
        "sunrise"
      ]
    },
    {
      "name": "Kaudulla National Park",
      "lat": 8.1667,
      "lng": 80.85,
      "province": "North Central",
      "city": "Kaudulla",
      "type": "wildlife",
      "budget": 4800,
      "season": "dry",
      "duration": 6,
      "rating": 4.3,
      "activities": [
        "elephant_watching",
        "safari",
        "photography"
      ]
    },
    {
      "name": "Thuparamaya Dagoba",
      "lat": 8.3114,
      "lng": 80.4037,
      "province": "North Central",
      "city": "Anuradhapura",
      "type": "religious",
      "budget": 800,
      "season": "all",
      "duration": 2,
      "rating": 4.4,
      "activities": [
        "worship",
        "history",
        "photography"
      ]
    },
    {
      "name": "Jaya Sri Maha Bodhi",
      "lat": 8.3114,
      "lng": 80.4037,
      "province": "North Central",
      "city": "Anuradhapura",
      "type": "religious",
      "budget": 500,
      "season": "all",
      "duration": 2,
      "rating": 4.6,
      "activities": [
        "worship",
        "meditation",
        "pilgrimage"
      ]
    },
    {
      "name": "Ruwanwelisaya Dagoba",
      "lat": 8.3114,
      "lng": 80.4037,
      "province": "North Central",
      "city": "Anuradhapura",
      "type": "religious",
      "budget": 600,
      "season": "all",
      "duration": 2,
      "rating": 4.5,
      "activities": [
        "worship",
        "ancient_stupa",
        "pilgrimage"
      ]
    },
    {
      "name": "Abhayagiri Dagoba",
      "lat": 8.32,
      "lng": 80.4,
      "province": "North Central",
      "city": "Anuradhapura",
      "type": "religious",
      "budget": 800,
      "season": "all",
      "duration": 3,
      "rating": 4.4,
      "activities": [
        "monastery_ruins",
        "archaeology",
        "meditation"
      ]
    },
    {
      "name": "Jetavanaramaya Dagoba",
      "lat": 8.315,
      "lng": 80.405,
      "province": "North Central",
      "city": "Anuradhapura",
      "type": "religious",
      "budget": 700,
      "season": "all",
      "duration": 2,
      "rating": 4.4,
      "activities": [
        "ancient_stupa",
        "archaeology",
        "worship"
      ]
    },
    {
      "name": "Isurumuniya Rock Temple",
      "lat": 8.3,
      "lng": 80.39,
      "province": "North Central",
      "city": "Anuradhapura",
      "type": "religious",
      "budget": 1000,
      "season": "all",
      "duration": 3,
      "rating": 4.3,
      "activities": [
        "rock_carvings",
        "lovers_sculpture",
        "pond"
      ]
    },
    {
      "name": "Samadhi Buddha Statue",
      "lat": 8.32,
      "lng": 80.41,
      "province": "North Central",
      "city": "Anuradhapura",
      "type": "religious",
      "budget": 400,
      "season": "all",
      "duration": 1,
      "rating": 4.3,
      "activities": [
        "meditation",
        "sculpture",
        "peaceful"
      ]
    },
    {
      "name": "Kuttam Pokuna Twin Ponds",
      "lat": 8.318,
      "lng": 80.402,
      "province": "North Central",
      "city": "Anuradhapura",
      "type": "historical",
      "budget": 600,
      "season": "all",
      "duration": 2,
      "rating": 4.2,
      "activities": [
        "ancient_engineering",
        "architecture",
        "photography"
      ]
    },
    {
      "name": "Moonstone Anuradhapura",
      "lat": 8.31,
      "lng": 80.4,
      "province": "North Central",
      "city": "Anuradhapura",
      "type": "historical",
      "budget": 500,
      "season": "all",
      "duration": 1,
      "rating": 4.1,
      "activities": [
        "stone_carving",
        "art",
        "archaeology"
      ]
    },
    {
      "name": "Brazen Palace Ruins",
      "lat": 8.312,
      "lng": 80.404,
      "province": "North Central",
      "city": "Anuradhapura",
      "type": "historical",
      "budget": 700,
      "season": "all",
      "duration": 2,
      "rating": 4.0,
      "activities": [
        "ancient_palace",
        "archaeology",
        "history"
      ]
    },
    {
      "name": "Elephant Pond Anuradhapura",
      "lat": 8.3,
      "lng": 80.395,
      "province": "North Central",
      "city": "Anuradhapura",
      "type": "historical",
      "budget": 400,
      "season": "all",
      "duration": 1,
      "rating": 4.0,
      "activities": [
        "ancient_bath",
        "archaeology",
        "peaceful"
      ]
    },
    {
      "name": "Anuradhapura Museum",
      "lat": 8.3114,
      "lng": 80.4037,
      "province": "North Central",
      "city": "Anuradhapura",
      "type": "cultural",
      "budget": 800,
      "season": "all",
      "duration": 2,
      "rating": 4.1,
      "activities": [
        "artifacts",
        "history",
        "education"
      ]
    },
    {
      "name": "Gal Vihara",
      "lat": 7.9403,
      "lng": 81.0188,
      "province": "North Central",
      "city": "Polonnaruwa",
      "type": "religious",
      "budget": 1200,
      "season": "all",
      "duration": 3,
      "rating": 4.7,
      "activities": [
        "rock_sculptures",
        "buddha_statues",
        "art"
      ]
    },
    {
      "name": "Parakrama Samudra",
      "lat": 7.95,
      "lng": 81.0,
      "province": "North Central",
      "city": "Polonnaruwa",
      "type": "historical",
      "budget": 1000,
      "season": "all",
      "duration": 3,
      "rating": 4.3,
      "activities": [
        "ancient_reservoir",
        "sunset",
        "bird_watching"
      ]
    },
    {
      "name": "Royal Palace Polonnaruwa",
      "lat": 7.9403,
      "lng": 81.0188,
      "province": "North Central",
      "city": "Polonnaruwa",
      "type": "historical",
      "budget": 1000,
      "season": "all",
      "duration": 2,
      "rating": 4.2,
      "activities": [
        "palace_ruins",
        "archaeology",
        "history"
      ]
    },
    {
      "name": "Quadrangle Polonnaruwa",
      "lat": 7.9403,
      "lng": 81.0188,
      "province": "North Central",
      "city": "Polonnaruwa",
      "type": "religious",
      "budget": 1500,
      "season": "all",
      "duration": 4,
      "rating": 4.5,
      "activities": [
        "temple_complex",
        "tooth_relic",
        "architecture"
      ]
    },
    {
      "name": "Rankoth Vehera",
      "lat": 7.935,
      "lng": 81.02,
      "province": "North Central",
      "city": "Polonnaruwa",
      "type": "religious",
      "budget": 800,
      "season": "all",
      "duration": 2,
      "rating": 4.3,
      "activities": [
        "large_stupa",
        "worship",
        "architecture"
      ]
    },
    {
      "name": "Lankatilaka Temple Polonnaruwa",
      "lat": 7.94,
      "lng": 81.015,
      "province": "North Central",
      "city": "Polonnaruwa",
      "type": "religious",
      "budget": 700,
      "season": "all",
      "duration": 2,
      "rating": 4.2,
      "activities": [
        "headless_buddha",
        "ancient_temple",
        "photography"
      ]
    },
    {
      "name": "Lotus Pond Polonnaruwa",
      "lat": 7.945,
      "lng": 81.015,
      "province": "North Central",
      "city": "Polonnaruwa",
      "type": "historical",
      "budget": 500,
      "season": "all",
      "duration": 1,
      "rating": 4.0,
      "activities": [
        "lotus_bath",
        "archaeology",
        "peaceful"
      ]
    },
    {
      "name": "Nissanka Latha Mandapaya",
      "lat": 7.942,
      "lng": 81.017,
      "province": "North Central",
      "city": "Polonnaruwa",
      "type": "historical",
      "budget": 600,
      "season": "all",
      "duration": 2,
      "rating": 4.2,
      "activities": [
        "stone_pillars",
        "audience_hall",
        "architecture"
      ]
    },
    {
      "name": "Pabalu Vehera",
      "lat": 7.93,
      "lng": 81.025,
      "province": "North Central",
      "city": "Polonnaruwa",
      "type": "religious",
      "budget": 500,
      "season": "all",
      "duration": 1,
      "rating": 3.9,
      "activities": [
        "small_stupa",
        "peaceful",
        "meditation"
      ]
    },
    {
      "name": "Polonnaruwa Museum",
      "lat": 7.9403,
      "lng": 81.0188,
      "province": "North Central",
      "city": "Polonnaruwa",
      "type": "cultural",
      "budget": 700,
      "season": "all",
      "duration": 2,
      "rating": 4.0,
      "activities": [
        "artifacts",
        "education",
        "history"
      ]
    },
    {
      "name": "Somawathiya National Park",
      "lat": 8.2,
      "lng": 81.1,
      "province": "North Central",
      "city": "Polonnaruwa",
      "type": "wildlife",
      "budget": 4000,
      "season": "dry",
      "duration": 5,
      "rating": 4.1,
      "activities": [
        "elephant_watching",
        "bird_watching",
        "chena_cultivation"
      ]
    },
    {
      "name": "Flood Plains National Park",
      "lat": 8.0,
      "lng": 80.95,
      "province": "North Central",
      "city": "Polonnaruwa",
      "type": "wildlife",
      "budget": 3500,
      "season": "dry",
      "duration": 4,
      "rating": 4.0,
      "activities": [
        "wetland_birds",
        "safari",
        "photography"
      ]
    },
    {
      "name": "Mihintale Museum",
      "lat": 8.35,
      "lng": 80.5167,
      "province": "North Central",
      "city": "Mihintale",
      "type": "cultural",
      "budget": 500,
      "season": "all",
      "duration": 1,
      "rating": 4.0,
      "activities": [
        "buddhist_artifacts",
        "education",
        "history"
      ]
    },
    {
      "name": "Ambasthala Dagoba",
      "lat": 8.355,
      "lng": 80.52,
      "province": "North Central",
      "city": "Mihintale",
      "type": "religious",
      "budget": 600,
      "season": "all",
      "duration": 2,
      "rating": 4.2,
      "activities": [
        "mahinda_landing",
        "pilgrimage",
        "sacred_site"
      ]
    },
    {
      "name": "Aradhana Gala",
      "lat": 8.36,
      "lng": 80.515,
      "province": "North Central",
      "city": "Mihintale",
      "type": "religious",
      "budget": 800,
      "season": "all",
      "duration": 3,
      "rating": 4.3,
      "activities": [
        "meditation_rock",
        "climbing",
        "panoramic_view"
      ]
    },
    {
      "name": "Mahaseya Dagoba",
      "lat": 8.358,
      "lng": 80.518,
      "province": "North Central",
      "city": "Mihintale",
      "type": "religious",
      "budget": 700,
      "season": "all",
      "duration": 2,
      "rating": 4.2,
      "activities": [
        "cremation_stupa",
        "mahinda",
        "worship"
      ]
    },
    {
      "name": "Kantaka Chetiya",
      "lat": 8.348,
      "lng": 80.512,
      "province": "North Central",
      "city": "Mihintale",
      "type": "religious",
      "budget": 600,
      "season": "all",
      "duration": 2,
      "rating": 4.1,
      "activities": [
        "ancient_stupa",
        "carvings",
        "archaeology"
      ]
    },
    {
      "name": "Kaludiya Pokuna",
      "lat": 8.352,
      "lng": 80.514,
      "province": "North Central",
      "city": "Mihintale",
      "type": "historical",
      "budget": 400,
      "season": "all",
      "duration": 1,
      "rating": 4.0,
      "activities": [
        "ancient_pond",
        "meditation",
        "peaceful"
      ]
    },
    {
      "name": "Naga Pokuna",
      "lat": 8.345,
      "lng": 80.51,
      "province": "North Central",
      "city": "Mihintale",
      "type": "historical",
      "budget": 500,
      "season": "all",
      "duration": 1,
      "rating": 4.0,
      "activities": [
        "cobra_hood_pond",
        "unique_design",
        "photography"
      ]
    },
    {
      "name": "Hospital Ruins Mihintale",
      "lat": 8.347,
      "lng": 80.511,
      "province": "North Central",
      "city": "Mihintale",
      "type": "historical",
      "budget": 400,
      "season": "all",
      "duration": 1,
      "rating": 3.9,
      "activities": [
        "ancient_hospital",
        "medicine",
        "archaeology"
      ]
    },
    {
      "name": "Minneriya Tank",
      "lat": 8.0167,
      "lng": 80.8833,
      "province": "North Central",
      "city": "Minneriya",
      "type": "historical",
      "budget": 1000,
      "season": "all",
      "duration": 3,
      "rating": 4.1,
      "activities": [
        "ancient_reservoir",
        "king_mahasena",
        "sunset"
      ]
    },
    {
      "name": "Kaudulla Tank",
      "lat": 8.1667,
      "lng": 80.85,
      "province": "North Central",
      "city": "Kaudulla",
      "type": "historical",
      "budget": 800,
      "season": "all",
      "duration": 2,
      "rating": 4.0,
      "activities": [
        "ancient_tank",
        "bird_watching",
        "sunset"
      ]
    },
    {
      "name": "Girithale Tank",
      "lat": 8.0,
      "lng": 80.9,
      "province": "North Central",
      "city": "Girithale",
      "type": "historical",
      "budget": 600,
      "season": "all",
      "duration": 2,
      "rating": 3.9,
      "activities": [
        "ancient_irrigation",
        "peaceful",
        "bird_watching"
      ]
    },
    {
      "name": "Medirigiriya Vatadage",
      "lat": 8.05,
      "lng": 81.15,
      "province": "North Central",
      "city": "Medirigiriya",
      "type": "historical",
      "budget": 1200,
      "season": "all",
      "duration": 3,
      "rating": 4.3,
      "activities": [
        "circular_relic_house",
        "archaeology",
        "unique_architecture"
      ]
    },
    {
      "name": "Nalanda Gedige",
      "lat": 7.6833,
      "lng": 80.65,
      "province": "North Central",
      "city": "Nalanda",
      "type": "historical",
      "budget": 1000,
      "season": "all",
      "duration": 3,
      "rating": 4.2,
      "activities": [
        "hindu_buddhist_temple",
        "unique_architecture",
        "stone_carving"
      ]
    },
    {
      "name": "Sigiriya View Point",
      "lat": 7.96,
      "lng": 80.75,
      "province": "North Central",
      "city": "Sigiriya",
      "type": "scenic",
      "budget": 1500,
      "season": "all",
      "duration": 3,
      "rating": 4.4,
      "activities": [
        "rock_view",
        "photography",
        "hiking"
      ]
    },
    {
      "name": "Dambulla Economic Center",
      "lat": 7.86,
      "lng": 80.65,
      "province": "North Central",
      "city": "Dambulla",
      "type": "cultural",
      "budget": 800,
      "season": "all",
      "duration": 2,
      "rating": 3.8,
      "activities": [
        "wholesale_market",
        "local_trade",
        "vegetables"
      ]
    },
    {
      "name": "Aukana Buddha Statue",
      "lat": 8.1667,
      "lng": 80.5167,
      "province": "North Central",
      "city": "Aukana",
      "type": "religious",
      "budget": 1000,
      "season": "all",
      "duration": 2,
      "rating": 4.4,
      "activities": [
        "standing_buddha",
        "masterpiece",
        "photography"
      ]
    },
    {
      "name": "Kalawewa Tank",
      "lat": 8.1,
      "lng": 80.45,
      "province": "North Central",
      "city": "Anuradhapura",
      "type": "historical",
      "budget": 800,
      "season": "all",
      "duration": 2,
      "rating": 4.0,
      "activities": [
        "ancient_reservoir",
        "king_dhatusena",
        "bird_watching"
      ]
    },
    {
      "name": "Thanthirimale",
      "lat": 8.4,
      "lng": 80.2,
      "province": "North Central",
      "city": "Anuradhapura",
      "type": "religious",
      "budget": 1200,
      "season": "all",
      "duration": 3,
      "rating": 4.2,
      "activities": [
        "ancient_monastery",
        "meditation_caves",
        "forest"
      ]
    },
    {
      "name": "Vessagiriya",
      "lat": 8.33,
      "lng": 80.42,
      "province": "North Central",
      "city": "Anuradhapura",
      "type": "historical",
      "budget": 800,
      "season": "all",
      "duration": 2,
      "rating": 4.0,
      "activities": [
        "cave_dwellings",
        "monk_cells",
        "archaeology"
      ]
    },
    {
      "name": "Ranmasu Uyana",
      "lat": 8.305,
      "lng": 80.395,
      "province": "North Central",
      "city": "Anuradhapura",
      "type": "historical",
      "budget": 600,
      "season": "all",
      "duration": 2,
      "rating": 4.0,
      "activities": [
        "royal_park",
        "stargate",
        "ancient_astronomy"
      ]
    },
    {
      "name": "Lovamahapaya",
      "lat": 8.313,
      "lng": 80.4045,
      "province": "North Central",
      "city": "Anuradhapura",
      "type": "historical",
      "budget": 500,
      "season": "all",
      "duration": 1,
      "rating": 3.9,
      "activities": [
        "brazen_palace",
        "ancient_residence",
        "pillars"
      ]
    },
    {
      "name": "Sandahiru Seya",
      "lat": 8.32,
      "lng": 80.41,
      "province": "North Central",
      "city": "Anuradhapura",
      "type": "religious",
      "budget": 400,
      "season": "all",
      "duration": 1,
      "rating": 4.1,
      "activities": [
        "modern_stupa",
        "war_heroes",
        "memorial"
      ]
    },
    {
      "name": "Ella Nine Arch Bridge",
      "lat": 6.8721,
      "lng": 81.0461,
      "province": "Uva",
      "city": "Ella",
      "type": "scenic",
      "budget": 1500,
      "season": "all",
      "duration": 3,
      "rating": 4.5,
      "activities": [
        "photography",
        "train_spotting",
        "hiking"
      ]
    },
    {
      "name": "Little Adam's Peak",
      "lat": 6.8721,
      "lng": 81.0461,
      "province": "Uva",
      "city": "Ella",
      "type": "adventure",
      "budget": 2000,
      "season": "dry",
      "duration": 4,
      "rating": 4.6,
      "activities": [
        "hiking",
        "sunrise",
        "photography"
      ]
    },
    {
      "name": "Ravana Falls",
      "lat": 6.8721,
      "lng": 81.0461,
      "province": "Uva",
      "city": "Ella",
      "type": "nature",
      "budget": 1000,
      "season": "wet",
      "duration": 2,
      "rating": 4.2,
      "activities": [
        "swimming",
        "photography",
        "hiking"
      ]
    },
    {
      "name": "Badulla Railway Station",
      "lat": 6.9934,
      "lng": 81.055,
      "province": "Uva",
      "city": "Badulla",
      "type": "scenic",
      "budget": 800,
      "season": "all",
      "duration": 2,
      "rating": 4.0,
      "activities": [
        "train_journey",
        "photography",
        "sightseeing"
      ]
    },
    {
      "name": "Dunhinda Falls",
      "lat": 6.9934,
      "lng": 81.055,
      "province": "Uva",
      "city": "Badulla",
      "type": "nature",
      "budget": 1500,
      "season": "wet",
      "duration": 3,
      "rating": 4.3,
      "activities": [
        "hiking",
        "swimming",
        "photography"
      ]
    },
    {
      "name": "Ella Rock",
      "lat": 6.8721,
      "lng": 81.0461,
      "province": "Uva",
      "city": "Ella",
      "type": "adventure",
      "budget": 2200,
      "season": "dry",
      "duration": 5,
      "rating": 4.7,
      "activities": [
        "hiking",
        "panoramic_view",
        "photography"
      ]
    },
    {
      "name": "Rawana Ella Cave",
      "lat": 6.8721,
      "lng": 81.0461,
      "province": "Uva",
      "city": "Ella",
      "type": "historical",
      "budget": 800,
      "season": "all",
      "duration": 2,
      "rating": 4.1,
      "activities": [
        "exploration",
        "mythology",
        "photography"
      ]
    },
    {
      "name": "Lipton's Seat",
      "lat": 6.85,
      "lng": 80.9,
      "province": "Uva",
      "city": "Haputale",
      "type": "scenic",
      "budget": 1800,
      "season": "all",
      "duration": 4,
      "rating": 4.4,
      "activities": [
        "sunrise",
        "tea_plantation",
        "photography"
      ]
    },
    {
      "name": "Diyaluma Falls",
      "lat": 6.7167,
      "lng": 81.0,
      "province": "Uva",
      "city": "Koslanda",
      "type": "nature",
      "budget": 2000,
      "season": "wet",
      "duration": 4,
      "rating": 4.5,
      "activities": [
        "hiking",
        "swimming",
        "photography"
      ]
    },
    {
      "name": "Sorabora Wawa",
      "lat": 7.15,
      "lng": 80.9,
      "province": "Uva",
      "city": "Mahiyanganaya",
      "type": "nature",
      "budget": 1800,
      "season": "all",
      "duration": 4,
      "rating": 4.3,
      "activities": [
        "boating",
        "fishing",
        "photography",
        "picnic"
      ]
    },
    {
      "name": "Mahiyangana Raja Maha Viharaya",
      "lat": 7.3333,
      "lng": 81.0,
      "province": "Uva",
      "city": "Mahiyanganaya",
      "type": "religious",
      "budget": 800,
      "season": "all",
      "duration": 3,
      "rating": 4.5,
      "activities": [
        "worship",
        "pilgrimage",
        "meditation",
        "buddhist_history"
      ]
    },
    {
      "name": "Bambarakanda Falls",
      "lat": 6.8167,
      "lng": 80.8333,
      "province": "Uva",
      "city": "Kalupahana",
      "type": "nature",
      "budget": 2500,
      "season": "wet",
      "duration": 5,
      "rating": 4.6,
      "activities": [
        "hiking",
        "tallest_waterfall",
        "photography"
      ]
    },
    {
      "name": "Namunukula Peak",
      "lat": 6.95,
      "lng": 81.1,
      "province": "Uva",
      "city": "Badulla",
      "type": "adventure",
      "budget": 3000,
      "season": "dry",
      "duration": 6,
      "rating": 4.5,
      "activities": [
        "mountain_climbing",
        "camping",
        "sunrise"
      ]
    },
    {
      "name": "Demodara Railway Loop",
      "lat": 6.86,
      "lng": 81.04,
      "province": "Uva",
      "city": "Demodara",
      "type": "scenic",
      "budget": 1200,
      "season": "all",
      "duration": 2,
      "rating": 4.3,
      "activities": [
        "train_loop",
        "engineering",
        "photography"
      ]
    },
    {
      "name": "Bogoda Wooden Bridge",
      "lat": 6.8,
      "lng": 81.05,
      "province": "Uva",
      "city": "Bandarawela",
      "type": "historical",
      "budget": 800,
      "season": "all",
      "duration": 2,
      "rating": 4.2,
      "activities": [
        "ancient_bridge",
        "architecture",
        "photography"
      ]
    },
    {
      "name": "Uva Halpewatte Tea Factory",
      "lat": 6.85,
      "lng": 81.02,
      "province": "Uva",
      "city": "Ella",
      "type": "cultural",
      "budget": 1500,
      "season": "all",
      "duration": 3,
      "rating": 4.1,
      "activities": [
        "tea_factory",
        "tasting",
        "education"
      ]
    },
    {
      "name": "Flying Ravana Mega Zipline",
      "lat": 6.8721,
      "lng": 81.0461,
      "province": "Uva",
      "city": "Ella",
      "type": "adventure",
      "budget": 4000,
      "season": "dry",
      "duration": 3,
      "rating": 4.4,
      "activities": [
        "zipline",
        "adventure",
        "aerial_view"
      ]
    },
    {
      "name": "Kataragama Temple Buttala",
      "lat": 6.75,
      "lng": 81.25,
      "province": "Uva",
      "city": "Buttala",
      "type": "religious",
      "budget": 1000,
      "season": "all",
      "duration": 3,
      "rating": 4.2,
      "activities": [
        "hindu_temple",
        "pilgrimage",
        "festival"
      ]
    },
    {
      "name": "Kudimbigala Monastery",
      "lat": 6.6,
      "lng": 81.7,
      "province": "Uva",
      "city": "Panama",
      "type": "religious",
      "budget": 2000,
      "season": "all",
      "duration": 5,
      "rating": 4.3,
      "activities": [
        "forest_monastery",
        "meditation",
        "climbing"
      ]
    },
    {
      "name": "Buduruwagala",
      "lat": 6.75,
      "lng": 81.05,
      "province": "Uva",
      "city": "Wellawaya",
      "type": "historical",
      "budget": 1500,
      "season": "all",
      "duration": 3,
      "rating": 4.4,
      "activities": [
        "rock_carvings",
        "archaeology",
        "buddhist_art"
      ]
    },
    {
      "name": "Muthiyangana Temple",
      "lat": 6.9894,
      "lng": 81.055,
      "province": "Uva",
      "city": "Badulla",
      "type": "religious",
      "budget": 800,
      "season": "all",
      "duration": 2,
      "rating": 4.3,
      "activities": [
        "ancient_temple",
        "gem_throne",
        "pilgrimage"
      ]
    },
    {
      "name": "Dhowa Rock Temple",
      "lat": 6.8,
      "lng": 81.03,
      "province": "Uva",
      "city": "Bandarawela",
      "type": "religious",
      "budget": 700,
      "season": "all",
      "duration": 2,
      "rating": 4.2,
      "activities": [
        "carved_buddha",
        "cave_temple",
        "archaeology"
      ]
    },
    {
      "name": "Kataragama Devalaya Sella",
      "lat": 6.85,
      "lng": 81.2,
      "province": "Uva",
      "city": "Sella Kataragama",
      "type": "religious",
      "budget": 600,
      "season": "all",
      "duration": 2,
      "rating": 4.0,
      "activities": [
        "hindu_shrine",
        "worship",
        "cultural"
      ]
    },
    {
      "name": "Bogoda Ancient Temple",
      "lat": 6.8,
      "lng": 81.05,
      "province": "Uva",
      "city": "Bandarawela",
      "type": "religious",
      "budget": 500,
      "season": "all",
      "duration": 2,
      "rating": 4.1,
      "activities": [
        "ancient_temple",
        "wooden_architecture",
        "peaceful"
      ]
    },
    {
      "name": "Adisham Bungalow",
      "lat": 6.8667,
      "lng": 80.8333,
      "province": "Uva",
      "city": "Haputale",
      "type": "historical",
      "budget": 2000,
      "season": "all",
      "duration": 3,
      "rating": 4.3,
      "activities": [
        "colonial_mansion",
        "monastery",
        "architecture"
      ]
    },
    {
      "name": "Thangamale Sanctuary",
      "lat": 6.8,
      "lng": 80.8,
      "province": "Uva",
      "city": "Haputale",
      "type": "wildlife",
      "budget": 2500,
      "season": "all",
      "duration": 5,
      "rating": 4.2,
      "activities": [
        "bird_watching",
        "hiking",
        "biodiversity"
      ]
    },
    {
      "name": "Beragala Gap",
      "lat": 6.8,
      "lng": 80.85,
      "province": "Uva",
      "city": "Beragala",
      "type": "scenic",
      "budget": 1000,
      "season": "all",
      "duration": 2,
      "rating": 4.1,
      "activities": [
        "mountain_pass",
        "photography",
        "cool_climate"
      ]
    },
    {
      "name": "Horton Plains Edge",
      "lat": 6.8077,
      "lng": 80.7963,
      "province": "Uva",
      "city": "Ohiya",
      "type": "nature",
      "budget": 3500,
      "season": "dry",
      "duration": 6,
      "rating": 4.6,
      "activities": [
        "hiking",
        "worlds_end",
        "bakers_falls"
      ]
    },
    {
      "name": "Welimada",
      "lat": 6.9,
      "lng": 80.9,
      "province": "Uva",
      "city": "Welimada",
      "type": "scenic",
      "budget": 1200,
      "season": "all",
      "duration": 3,
      "rating": 4.0,
      "activities": [
        "potato_farms",
        "cool_climate",
        "rural_life"
      ]
    },
    {
      "name": "Pundaluoya",
      "lat": 6.95,
      "lng": 80.75,
      "province": "Uva",
      "city": "Pundaluoya",
      "type": "scenic",
      "budget": 1000,
      "season": "all",
      "duration": 2,
      "rating": 3.9,
      "activities": [
        "railway_station",
        "tea_country",
        "photography"
      ]
    },
    {
      "name": "Idalgashinna Railway Station",
      "lat": 6.88,
      "lng": 80.92,
      "province": "Uva",
      "city": "Idalgashinna",
      "type": "scenic",
      "budget": 800,
      "season": "all",
      "duration": 2,
      "rating": 4.2,
      "activities": [
        "highest_station",
        "train_journey",
        "mountain_views"
      ]
    },
    {
      "name": "Bandarawela Hotel",
      "lat": 6.83,
      "lng": 80.99,
      "province": "Uva",
      "city": "Bandarawela",
      "type": "cultural",
      "budget": 1500,
      "season": "all",
      "duration": 2,
      "rating": 4.0,
      "activities": [
        "colonial_hotel",
        "heritage",
        "high_tea"
      ]
    },
    {
      "name": "Kinellan Tea Factory",
      "lat": 6.84,
      "lng": 80.98,
      "province": "Uva",
      "city": "Bandarawela",
      "type": "cultural",
      "budget": 1200,
      "season": "all",
      "duration": 2,
      "rating": 4.0,
      "activities": [
        "tea_factory",
        "processing",
        "education"
      ]
    },
    {
      "name": "Haputhale Railway Station",
      "lat": 6.7667,
      "lng": 80.95,
      "province": "Uva",
      "city": "Haputale",
      "type": "scenic",
      "budget": 600,
      "season": "all",
      "duration": 1,
      "rating": 4.1,
      "activities": [
        "mountain_station",
        "train_journey",
        "views"
      ]
    },
    {
      "name": "Dambatenne Tea Estate",
      "lat": 6.8333,
      "lng": 80.8167,
      "province": "Uva",
      "city": "Haputale",
      "type": "cultural",
      "budget": 1800,
      "season": "all",
      "duration": 4,
      "rating": 4.3,
      "activities": [
        "lipton_estate",
        "tea_tasting",
        "history"
      ]
    },
    {
      "name": "Ella Gap",
      "lat": 6.8721,
      "lng": 81.0461,
      "province": "Uva",
      "city": "Ella",
      "type": "scenic",
      "budget": 800,
      "season": "all",
      "duration": 2,
      "rating": 4.2,
      "activities": [
        "mountain_gap",
        "sunrise",
        "photography"
      ]
    },
    {
      "name": "Ravana Pool Club",
      "lat": 6.87,
      "lng": 81.05,
      "province": "Uva",
      "city": "Ella",
      "type": "adventure",
      "budget": 2500,
      "season": "all",
      "duration": 4,
      "rating": 4.0,
      "activities": [
        "natural_pools",
        "swimming",
        "relaxation"
      ]
    },
    {
      "name": "98 Acres Resort View Point",
      "lat": 6.8721,
      "lng": 81.0461,
      "province": "Uva",
      "city": "Ella",
      "type": "scenic",
      "budget": 1000,
      "season": "all",
      "duration": 2,
      "rating": 4.3,
      "activities": [
        "tea_plantation",
        "luxury_view",
        "photography"
      ]
    },
    {
      "name": "Demodara Nine Arch Bridge",
      "lat": 6.86,
      "lng": 81.04,
      "province": "Uva",
      "city": "Demodara",
      "type": "scenic",
      "budget": 1000,
      "season": "all",
      "duration": 2,
      "rating": 4.2,
      "activities": [
        "railway_bridge",
        "architecture",
        "train_watching"
      ]
    },
    {
      "name": "Thangamale Sanctuary",
      "lat": 6.8,
      "lng": 80.8,
      "province": "Central",
      "city": "Haputale",
      "type": "wildlife",
      "budget": 3000,
      "season": "all",
      "duration": 6,
      "rating": 4.3,
      "activities": [
        "wildlife",
        "hiking",
        "photography"
      ]
    },
    {
      "name": "Kinda Cave",
      "lat": 6.95,
      "lng": 80.95,
      "province": "Uva",
      "city": "Welimada",
      "type": "historical",
      "budget": 1000,
      "season": "all",
      "duration": 3,
      "rating": 4.0,
      "activities": [
        "prehistoric_cave",
        "archaeology",
        "spelunking"
      ]
    },
    {
      "name": "Passara",
      "lat": 7.0,
      "lng": 81.2,
      "province": "Uva",
      "city": "Passara",
      "type": "cultural",
      "budget": 800,
      "season": "all",
      "duration": 2,
      "rating": 3.9,
      "activities": [
        "rural_town",
        "local_culture",
        "agriculture"
      ]
    },
    {
      "name": "Lunugala",
      "lat": 6.9,
      "lng": 81.15,
      "province": "Uva",
      "city": "Lunugala",
      "type": "scenic",
      "budget": 600,
      "season": "all",
      "duration": 2,
      "rating": 3.8,
      "activities": [
        "small_town",
        "tea_gardens",
        "peaceful"
      ]
    },
    {
      "name": "Bandarawela Market",
      "lat": 6.83,
      "lng": 80.99,
      "province": "Uva",
      "city": "Bandarawela",
      "type": "cultural",
      "budget": 500,
      "season": "all",
      "duration": 2,
      "rating": 3.9,
      "activities": [
        "local_market",
        "vegetables",
        "highland_produce"
      ]
    },
    {
      "name": "Koslanda",
      "lat": 6.7167,
      "lng": 81.0,
      "province": "Uva",
      "city": "Koslanda",
      "type": "scenic",
      "budget": 800,
      "season": "all",
      "duration": 2,
      "rating": 4.0,
      "activities": [
        "mountain_village",
        "tea_estates",
        "cool_climate"
      ]
    },
    {
      "name": "Uva Paranagama",
      "lat": 6.8,
      "lng": 81.1,
      "province": "Uva",
      "city": "Paranagama",
      "type": "cultural",
      "budget": 600,
      "season": "all",
      "duration": 2,
      "rating": 3.8,
      "activities": [
        "rural_community",
        "agriculture",
        "traditional_life"
      ]
    },
    {
      "name": "Sylvester Falls",
      "lat": 6.85,
      "lng": 81.06,
      "province": "Uva",
      "city": "Ella",
      "type": "nature",
      "budget": 1200,
      "season": "wet",
      "duration": 3,
      "rating": 4.0,
      "activities": [
        "hidden_waterfall",
        "hiking",
        "photography"
      ]
    },
    {
      "name": "Wellawaya Archaeological Site",
      "lat": 6.75,
      "lng": 81.1,
      "province": "Uva",
      "city": "Wellawaya",
      "type": "historical",
      "budget": 1000,
      "season": "all",
      "duration": 3,
      "rating": 4.0,
      "activities": [
        "ancient_ruins",
        "archaeology",
        "history"
      ]
    },
    {
      "name": "Kubalwela Mahamewnawa Monastery",
      "lat": 6.92,
      "lng": 80.98,
      "province": "Uva",
      "city": "Kubalwela",
      "type": "religious",
      "budget": 800,
      "season": "all",
      "duration": 2,
      "rating": 4.3,
      "activities": [
        "meditation",
        "forest_monastery",
        "peaceful_retreat"
      ]
    },
    {
      "name": "Adam's Peak",
      "lat": 6.8092,
      "lng": 80.4989,
      "province": "Sabaragamuwa",
      "city": "Nallathanniya",
      "type": "adventure",
      "budget": 2500,
      "season": "dry",
      "duration": 8,
      "rating": 4.8,
      "activities": [
        "pilgrimage",
        "hiking",
        "sunrise"
      ]
    },
    {
      "name": "Sinharaja Forest Reserve",
      "lat": 6.4167,
      "lng": 80.4167,
      "province": "Sabaragamuwa",
      "city": "Ratnapura",
      "type": "nature",
      "budget": 3500,
      "season": "dry",
      "duration": 6,
      "rating": 4.6,
      "activities": [
        "bird_watching",
        "hiking",
        "research"
      ]
    },
    {
      "name": "Gem Museum Ratnapura",
      "lat": 6.6828,
      "lng": 80.3992,
      "province": "Sabaragamuwa",
      "city": "Ratnapura",
      "type": "cultural",
      "budget": 1200,
      "season": "all",
      "duration": 2,
      "rating": 4.1,
      "activities": [
        "gem_mining",
        "learning",
        "shopping"
      ]
    },
    {
      "name": "Bopath Falls",
      "lat": 6.6828,
      "lng": 80.3992,
      "province": "Sabaragamuwa",
      "city": "Ratnapura",
      "type": "nature",
      "budget": 1000,
      "season": "wet",
      "duration": 3,
      "rating": 4.2,
      "activities": [
        "swimming",
        "photography",
        "picnic"
      ]
    },
    {
      "name": "Kitulgala White Water Rafting",
      "lat": 6.9833,
      "lng": 80.4167,
      "province": "Sabaragamuwa",
      "city": "Kitulgala",
      "type": "adventure",
      "budget": 4500,
      "season": "wet",
      "duration": 5,
      "rating": 4.5,
      "activities": [
        "rafting",
        "adventure_sports",
        "filming_location"
      ]
    },
    {
      "name": "Belilena Cave",
      "lat": 6.9833,
      "lng": 80.4167,
      "province": "Sabaragamuwa",
      "city": "Kitulgala",
      "type": "historical",
      "budget": 1500,
      "season": "all",
      "duration": 3,
      "rating": 4.0,
      "activities": [
        "archaeology",
        "exploration",
        "history"
      ]
    },
    {
      "name": "Maha Saman Devalaya",
      "lat": 6.6828,
      "lng": 80.3992,
      "province": "Sabaragamuwa",
      "city": "Ratnapura",
      "type": "religious",
      "budget": 800,
      "season": "all",
      "duration": 2,
      "rating": 4.3,
      "activities": [
        "worship",
        "festival",
        "cultural"
      ]
    },
    {
      "name": "Kuruwita Waterfall",
      "lat": 6.65,
      "lng": 80.3667,
      "province": "Sabaragamuwa",
      "city": "Kuruwita",
      "type": "nature",
      "budget": 1200,
      "season": "wet",
      "duration": 3,
      "rating": 4.1,
      "activities": [
        "swimming",
        "photography",
        "hiking"
      ]
    },
    {
      "name": "Kelani River",
      "lat": 6.9833,
      "lng": 80.4167,
      "province": "Sabaragamuwa",
      "city": "Kitulgala",
      "type": "adventure",
      "budget": 3000,
      "season": "wet",
      "duration": 4,
      "rating": 4.3,
      "activities": [
        "kayaking",
        "canoeing",
        "river_sports"
      ]
    },
    {
      "name": "Makandawa Forest Reserve",
      "lat": 6.95,
      "lng": 80.4,
      "province": "Sabaragamuwa",
      "city": "Kitulgala",
      "type": "nature",
      "budget": 2000,
      "season": "all",
      "duration": 4,
      "rating": 4.2,
      "activities": [
        "bird_watching",
        "hiking",
        "biodiversity"
      ]
    },
    {
      "name": "Pahanthudawa Falls",
      "lat": 6.6,
      "lng": 80.45,
      "province": "Sabaragamuwa",
      "city": "Belihuloya",
      "type": "nature",
      "budget": 1800,
      "season": "wet",
      "duration": 4,
      "rating": 4.4,
      "activities": [
        "waterfall",
        "swimming",
        "hiking"
      ]
    },
    {
      "name": "Belihuloya",
      "lat": 6.6,
      "lng": 80.45,
      "province": "Sabaragamuwa",
      "city": "Belihuloya",
      "type": "scenic",
      "budget": 2200,
      "season": "all",
      "duration": 5,
      "rating": 4.3,
      "activities": [
        "adventure_base",
        "river_activities",
        "mountain_views"
      ]
    },
    {
      "name": "Kiriwan Ella Falls",
      "lat": 6.55,
      "lng": 80.4,
      "province": "Sabaragamuwa",
      "city": "Belihuloya",
      "type": "nature",
      "budget": 1500,
      "season": "wet",
      "duration": 3,
      "rating": 4.2,
      "activities": [
        "hidden_waterfall",
        "hiking",
        "photography"
      ]
    },
    {
      "name": "Aberdeen Falls",
      "lat": 6.5,
      "lng": 80.42,
      "province": "Sabaragamuwa",
      "city": "Ginigathena",
      "type": "nature",
      "budget": 2000,
      "season": "wet",
      "duration": 4,
      "rating": 4.3,
      "activities": [
        "waterfall",
        "hiking",
        "natural_pools"
      ]
    },
    {
      "name": "Deniyaya",
      "lat": 6.35,
      "lng": 80.55,
      "province": "Sabaragamuwa",
      "city": "Deniyaya",
      "type": "cultural",
      "budget": 1000,
      "season": "all",
      "duration": 3,
      "rating": 4.0,
      "activities": [
        "tea_plantations",
        "rural_life",
        "cool_climate"
      ]
    },
    {
      "name": "Carney Falls",
      "lat": 6.62,
      "lng": 80.38,
      "province": "Sabaragamuwa",
      "city": "Ratnapura",
      "type": "nature",
      "budget": 1300,
      "season": "wet",
      "duration": 3,
      "rating": 4.1,
      "activities": [
        "waterfall",
        "swimming",
        "picnic"
      ]
    },
    {
      "name": "Gem Pits Ratnapura",
      "lat": 6.6828,
      "lng": 80.3992,
      "province": "Sabaragamuwa",
      "city": "Ratnapura",
      "type": "cultural",
      "budget": 1500,
      "season": "all",
      "duration": 3,
      "rating": 4.0,
      "activities": [
        "gem_mining",
        "local_industry",
        "educational"
      ]
    },
    {
      "name": "Palindanuwara",
      "lat": 6.7,
      "lng": 80.35,
      "province": "Sabaragamuwa",
      "city": "Palindanuwara",
      "type": "historical",
      "budget": 1000,
      "season": "all",
      "duration": 2,
      "rating": 3.9,
      "activities": [
        "ancient_kingdom",
        "archaeology",
        "ruins"
      ]
    },
    {
      "name": "Udawalawa Reservoir",
      "lat": 6.45,
      "lng": 80.8,
      "province": "Sabaragamuwa",
      "city": "Embilipitiya",
      "type": "nature",
      "budget": 1200,
      "season": "all",
      "duration": 3,
      "rating": 4.1,
      "activities": [
        "reservoir",
        "fishing",
        "boat_rides"
      ]
    },
    {
      "name": "Embilipitiya",
      "lat": 6.3431,
      "lng": 80.8487,
      "province": "Sabaragamuwa",
      "city": "Embilipitiya",
      "type": "cultural",
      "budget": 800,
      "season": "all",
      "duration": 2,
      "rating": 3.8,
      "activities": [
        "rural_town",
        "agriculture",
        "local_culture"
      ]
    },
    {
      "name": "Balangoda",
      "lat": 6.65,
      "lng": 80.6833,
      "province": "Sabaragamuwa",
      "city": "Balangoda",
      "type": "cultural",
      "budget": 1000,
      "season": "all",
      "duration": 3,
      "rating": 4.0,
      "activities": [
        "prehistoric_sites",
        "archaeology",
        "rural_culture"
      ]
    },
    {
      "name": "Kalawana",
      "lat": 6.5,
      "lng": 80.4,
      "province": "Sabaragamuwa",
      "city": "Kalawana",
      "type": "scenic",
      "budget": 1500,
      "season": "all",
      "duration": 3,
      "rating": 4.1,
      "activities": [
        "mountain_town",
        "sinharaja_gateway",
        "nature"
      ]
    },
    {
      "name": "Eheliyagoda",
      "lat": 6.85,
      "lng": 80.2667,
      "province": "Sabaragamuwa",
      "city": "Eheliyagoda",
      "type": "cultural",
      "budget": 800,
      "season": "all",
      "duration": 2,
      "rating": 3.9,
      "activities": [
        "rubber_plantations",
        "local_industry",
        "rural_life"
      ]
    },
    {
      "name": "Pelmadulla",
      "lat": 6.6,
      "lng": 80.5333,
      "province": "Sabaragamuwa",
      "city": "Pelmadulla",
      "type": "cultural",
      "budget": 600,
      "season": "all",
      "duration": 2,
      "rating": 3.8,
      "activities": [
        "tea_center",
        "local_market",
        "transport_hub"
      ]
    },
    {
      "name": "Godakawela",
      "lat": 6.55,
      "lng": 80.6,
      "province": "Sabaragamuwa",
      "city": "Godakawela",
      "type": "cultural",
      "budget": 700,
      "season": "all",
      "duration": 2,
      "rating": 3.8,
      "activities": [
        "river_town",
        "local_culture",
        "agriculture"
      ]
    },
    {
      "name": "Rakwana",
      "lat": 6.4,
      "lng": 80.5,
      "province": "Sabaragamuwa",
      "city": "Rakwana",
      "type": "cultural",
      "budget": 900,
      "season": "all",
      "duration": 2,
      "rating": 3.9,
      "activities": [
        "tea_estates",
        "mountain_village",
        "peaceful"
      ]
    },
    {
      "name": "Nivithigala",
      "lat": 6.6167,
      "lng": 80.2833,
      "province": "Sabaragamuwa",
      "city": "Nivithigala",
      "type": "cultural",
      "budget": 500,
      "season": "all",
      "duration": 2,
      "rating": 3.7,
      "activities": [
        "small_town",
        "rubber_estates",
        "local_life"
      ]
    },
    {
      "name": "Opanayaka",
      "lat": 6.5667,
      "lng": 80.3333,
      "province": "Sabaragamuwa",
      "city": "Opanayaka",
      "type": "cultural",
      "budget": 600,
      "season": "all",
      "duration": 2,
      "rating": 3.8,
      "activities": [
        "gem_trading",
        "small_town",
        "local_market"
      ]
    },
    {
      "name": "Kiriella",
      "lat": 6.6833,
      "lng": 80.3167,
      "province": "Sabaragamuwa",
      "city": "Kiriella",
      "type": "cultural",
      "budget": 500,
      "season": "all",
      "duration": 1,
      "rating": 3.7,
      "activities": [
        "rubber_town",
        "local_culture",
        "peaceful"
      ]
    },
    {
      "name": "Adam's Peak Base Camp",
      "lat": 6.8,
      "lng": 80.5,
      "province": "Sabaragamuwa",
      "city": "Nallathanniya",
      "type": "adventure",
      "budget": 1000,
      "season": "dry",
      "duration": 2,
      "rating": 4.2,
      "activities": [
        "pilgrimage_start",
        "preparation",
        "rest_house"
      ]
    },
    {
      "name": "Maskeliya Reservoir",
      "lat": 6.8167,
      "lng": 80.5167,
      "province": "Sabaragamuwa",
      "city": "Maskeliya",
      "type": "nature",
      "budget": 1500,
      "season": "all",
      "duration": 3,
      "rating": 4.1,
      "activities": [
        "hydro_power",
        "scenic_reservoir",
        "mountain_views"
      ]
    },
    {
      "name": "Laxapana Falls",
      "lat": 6.8,
      "lng": 80.52,
      "province": "Sabaragamuwa",
      "city": "Maskeliya",
      "type": "nature",
      "budget": 1800,
      "season": "wet",
      "duration": 4,
      "rating": 4.3,
      "activities": [
        "waterfall",
        "hydro_power",
        "hiking"
      ]
    },
    {
      "name": "Norton Plains",
      "lat": 6.75,
      "lng": 80.45,
      "province": "Sabaragamuwa",
      "city": "Nallathanniya",
      "type": "nature",
      "budget": 2000,
      "season": "all",
      "duration": 4,
      "rating": 4.2,
      "activities": [
        "grasslands",
        "hiking",
        "adam_peak_approach"
      ]
    },
    {
      "name": "Peak Wilderness Sanctuary",
      "lat": 6.75,
      "lng": 80.45,
      "province": "Sabaragamuwa",
      "city": "Nallathanniya",
      "type": "wildlife",
      "budget": 2500,
      "season": "dry",
      "duration": 5,
      "rating": 4.3,
      "activities": [
        "wilderness",
        "trekking",
        "biodiversity"
      ]
    },
    {
      "name": "Kaluganga River",
      "lat": 6.85,
      "lng": 80.3,
      "province": "Sabaragamuwa",
      "city": "Ratnapura",
      "type": "nature",
      "budget": 1000,
      "season": "all",
      "duration": 3,
      "rating": 4.0,
      "activities": [
        "river_activities",
        "gem_washing",
        "boat_rides"
      ]
    },
    {
      "name": "Sinharaja Buffer Zone",
      "lat": 6.4,
      "lng": 80.4,
      "province": "Sabaragamuwa",
      "city": "Kalawana",
      "type": "nature",
      "budget": 2000,
      "season": "dry",
      "duration": 4,
      "rating": 4.2,
      "activities": [
        "eco_tourism",
        "bird_watching",
        "forest_edge"
      ]
    },
    {
      "name": "Kitulgala Rest House",
      "lat": 6.9833,
      "lng": 80.4167,
      "province": "Sabaragamuwa",
      "city": "Kitulgala",
      "type": "cultural",
      "budget": 1200,
      "season": "all",
      "duration": 2,
      "rating": 4.0,
      "activities": [
        "colonial_rest_house",
        "river_view",
        "heritage"
      ]
    },
    {
      "name": "Bridge on River Kwai Location",
      "lat": 6.9833,
      "lng": 80.4167,
      "province": "Sabaragamuwa",
      "city": "Kitulgala",
      "type": "cultural",
      "budget": 800,
      "season": "all",
      "duration": 2,
      "rating": 4.1,
      "activities": [
        "film_location",
        "history",
        "river_bridge"
      ]
    },
    {
      "name": "Pitakotte",
      "lat": 6.95,
      "lng": 80.45,
      "province": "Sabaragamuwa",
      "city": "Kitulgala",
      "type": "adventure",
      "budget": 2500,
      "season": "all",
      "duration": 4,
      "rating": 4.2,
      "activities": [
        "adventure_sports",
        "zip_lining",
        "forest_canopy"
      ]
    },
    {
      "name": "Rathna Ella Falls",
      "lat": 6.65,
      "lng": 80.4,
      "province": "Sabaragamuwa",
      "city": "Ratnapura",
      "type": "nature",
      "budget": 1400,
      "season": "wet",
      "duration": 3,
      "rating": 4.1,
      "activities": [
        "waterfall",
        "gem_area",
        "swimming"
      ]
    },
    {
      "name": "Sinharaja Rain Forest Edge",
      "lat": 6.4,
      "lng": 80.45,
      "province": "Sabaragamuwa",
      "city": "Deniyaya",
      "type": "nature",
      "budget": 2800,
      "season": "dry",
      "duration": 5,
      "rating": 4.4,
      "activities": [
        "rainforest",
        "endemic_species",
        "research"
      ]
    },
    {
      "name": "Tea Research Institute",
      "lat": 6.6,
      "lng": 80.5,
      "province": "Sabaragamuwa",
      "city": "Talawakelle",
      "type": "educational",
      "budget": 1000,
      "season": "all",
      "duration": 2,
      "rating": 4.0,
      "activities": [
        "research_center",
        "tea_science",
        "education"
      ]
    },
    {
      "name": "Castlereagh Reservoir",
      "lat": 6.9,
      "lng": 80.55,
      "province": "Sabaragamuwa",
      "city": "Hatton",
      "type": "nature",
      "budget": 1600,
      "season": "all",
      "duration": 3,
      "rating": 4.2,
      "activities": [
        "scenic_reservoir",
        "hydroelectric",
        "mountain_views"
      ]
    },
    {
      "name": "Hatton",
      "lat": 6.8833,
      "lng": 80.5833,
      "province": "Sabaragamuwa",
      "city": "Hatton",
      "type": "cultural",
      "budget": 1200,
      "season": "all",
      "duration": 3,
      "rating": 4.0,
      "activities": [
        "tea_town",
        "tamil_culture",
        "plantation_life"
      ]
    }
  ],
  "encoders": {
    "user_travel_type_classes": [
      "adventure",
      "beach",
      "cultural",
      "historical",
      "nature",
      "religious",
      "scenic",
      "wildlife"
    ],
    "place_type_classes": [
      "adventure",
      "beach",
      "cultural",
      "educational",
      "historical",
      "modern",
      "nature",
      "recreational",
      "religious",
      "scenic",
      "wildlife"
    ],
    "user_province_classes": [
      "Central",
      "Eastern",
      "North Central",
      "North Western",
      "Northern",
      "Sabaragamuwa",
      "Southern",
      "Uva",
      "Western"
    ],
    "place_province_classes": [
      "Central",
      "Eastern",
      "North Central",
      "North Western",
      "Northern",
      "Sabaragamuwa",
      "Southern",
      "Uva",
      "Western"
    ],
    "season_classes": [
      "all",
      "dry",
      "wet"
    ]
  },
  "preprocessing": {
    "scaler_mean": [
      7.42457777777778,
      80.45895555555568,
      6142.857142857143,
      3.5,
      5.5,
      4.0,
      7.3173513011152425,
      80.54475966542756,
      1500.7434944237918,
      4.899628252788104,
      3.0817843866171004,
      4.115241635687732,
      4.150929368029743,
      153.21711868577626,
      0.9522314656880829,
      0.2990706319702615,
      0.5706319702602228,
      0.5555555555555556,
      0.9468401486988851,
      0.2936802973977695,
      6.337428654909062,
      0.1111111111111111
    ],
    "scaler_scale": [
      0.99197814243144,
      0.5684849106003157,
      4611.432111876845,
      2.29128784747792,
      2.8722813232690143,
      2.581988897471611,
      0.9713952007064668,
      0.5749368625991491,
      1029.526637719327,
      3.0639345667116085,
      1.3430265209737111,
      2.67052443876543,
      0.2030645113125857,
      92.52990627549707,
      0.14663924593265568,
      0.2606808903806294,
      0.3466568563843418,
      0.15713484026367683,
      0.08835157310351846,
      0.5130246213414262,
      7.528682104558427,
      0.31426968052735366
    ],
    "feature_columns": [
      "user_lat",
      "user_lng",
      "user_budget",
      "user_travel_type_encoded",
      "user_duration",
      "user_province_encoded",
      "place_lat",
      "place_lng",
      "place_budget",
      "place_type_encoded",
      "place_duration",
      "place_province_encoded",
      "place_rating",
      "distance",
      "budget_match",
      "type_match",
      "duration_match",
      "province_match",
      "season_match",
      "season_encoded",
      "budget_ratio",
      "same_province"
    ],
    "normalization_ranges": {
      "latitude": {
        "min": 5.5,
        "max": 10.0
      },
      "longitude": {
        "min": 79.0,
        "max": 82.0
      },
      "budget": {
        "min": 500,
        "max": 20000
      },
      "duration": {
        "min": 1,
        "max": 10
      },
      "rating": {
        "min": 3.5,
        "max": 5.0
      }
    }
  },
  "usage": {
    "input_shape": [
      22
    ],
    "output_shape": [
      1
    ],
    "prediction_threshold": 0.5,
    "confidence_interpretation": "Values closer to 1.0 indicate higher recommendation confidence",
    "recommended_minimum_confidence": 0.3
  },
  "performance_notes": {
    "best_for": "Sri Lankan travel destination recommendations",
    "training_data": "40+ authentic Sri Lankan destinations",
    "geographic_coverage": "All 9 provinces of Sri Lanka",
    "model_strengths": [
      "Location-aware",
      "Budget-conscious",
      "Travel type specific",
      "Duration optimized"
    ]
  }
}